行政区域コード,公共施設大分類,公共施設小分類,名称,所在地,管理者コード,原典資料名,Lon,Lat
13101,3,3001,ニューオータニ美術館,紀尾井町4-1,4,数値地図画像,139.73487173,35.68117544
13101,3,3001,宮内庁三の丸尚蔵館,千代田1-1,1,数値地図画像,136.91036752,35.16083215
13101,3,3001,山種美術館,三番町2,4,数値地図,132.77130477,33.83817398
13101,3,3001,出光美術館,丸の内3-1-1,4,数値地図,139.76090303,35.67668492
13101,3,3001,独立行政法人国立美術館・東京国立近代美術館,北の丸公園3-1,0,数値地図画像,139.75464194,35.69054158
13101,3,3001,独立行政法人国立美術館・東京国立近代美術館工芸館,北の丸公園1-1,0,数値地図画像,139.74949505,35.69242180
13102,3,3001,ブリヂストン美術館,京橋1-10-1,4,数値地図,
13102,3,3001,三井記念美術館,日本橋室町2-1-1,4,数値地図画像,139.77292143,35.68639254
13102,3,3001,独立行政法人国立美術館・東京国立近代美術館フィルムセンター,京橋3-7-6,0,数値地図画像,139.77066337,35.67549364
13103,3,3001,サントリー美術館,元赤坂1-2-3,4,数値地図画像,
13103,3,3001,菊池寛実記念智美術館,虎ノ門4-1-35,4,数値地図画像,139.74443538,35.66606344
13103,3,3001,吉田苞竹記念会館,麻布台1-1-12,4,数値地図画像,139.74030534,35.66227209
13103,3,3001,根津美術館,南青山6-5-1,4,数値地図,139.71754348,35.66213825
13103,3,3001,松岡美術館,白金台5-12-6,4,数値地図画像,139.72180225,35.63995470
13103,3,3001,松下電工汐留ミュージアム,東新橋1-5-1,4,数値地図画像,139.76186447,35.66588335
13103,3,3001,森美術館,六本木6-10-1,4,数値地図画像,139.72924805,35.66041647
13103,3,3001,泉屋博古館分館,六本木1-5-1,4,数値地図画像,139.74131904,35.66491627
13103,3,3001,草月美術館,赤坂7-2-21,4,数値地図画像,139.72922807,35.67412886
13103,3,3001,大倉集古館,虎ノ門2-10-3,4,数値地図,139.74325490,35.66699109
13103,3,3001,東京都庭園美術館,白金台5-21-9,4,数値地図,139.71938035,35.63685779
13103,3,3001,畠山記念館,白金台2-20-12,4,数値地図,139.72690203,35.63233067
13104,3,3001,佐藤美術館,大京町31-10,4,数値地図画像,139.71497903,35.68174159
13104,3,3001,新宿美術館,新宿1-34-3,4,数値地図画像,139.71077349,35.69110710
13104,3,3001,早稲田大学會津八一記念博物館,西早稲田1-6-1,4,数値地図画像,139.71907205,35.70914975
13104,3,3001,損保ジャパン東郷青児美術館,西新宿1-26-1,4,数値地図,139.69615250,35.69268433
13104,3,3001,東京オペラシティアートギャラリー,西新宿3-20-2,4,数値地図画像,139.68685370,35.68293798
13104,3,3001,明治神宮聖徳記念絵画館,霞ケ丘9,4,数値地図,139.71620402,35.67934744
13105,3,3001,センチュリーミュージアム,本郷2-2-9,4,数値地図,139.75956608,35.70210156
13105,3,3001,永青文庫,目白台1-1-1,4,数値地図,
13105,3,3001,講談社野間記念館,関口2-11-30,4,数値地図画像,139.72500747,35.71402992
13105,3,3001,弥生美術館・竹久夢二美術館,弥生2-4-3・弥生2-4-2,4,数値地図画像,139.76346258,35.71492537
13106,3,3001,横山大観記念館,池之端1-4-24,4,数値地図,139.76815687,35.71216747
13106,3,3001,国立西洋美術館,上野公園7-7,0,数値地図,139.77589247,35.71533133
13106,3,3001,上野の森美術館,上野公園1-2,4,数値地図,139.77474820,35.71271209
13106,3,3001,台東区立書道博物館,根岸2-10-4,3,数値地図画像,139.77646718,35.72471115
13106,3,3001,台東区立朝倉彫塑館,谷中7-18-10,3,数値地図画像,139.76853986,35.72690509
13106,3,3001,大名時計博物館,谷中2-1-27,4,数値地図,139.76606788,35.72141378
13106,3,3001,東京国立博物館,上野公園13-9,0,数値地図,139.77606456,35.71852828
13106,3,3001,東京都美術館,上野公園8-36,4,数値地図,139.77278983,35.71721720
13106,3,3001,東京藝術大学大学美術館,上野公園12-8,0,数値地図画像,139.77283420,35.71961421
13108,3,3001,東京都現代美術館,三好4-1-1,2,数値地図,139.80799467,35.67972464
13109,3,3001,Ｏ美術館,大崎1-6-2,3,数値地図画像,139.72912446,35.62093763
13109,3,3001,久米美術館,上大崎2-25-5,4,数値地図画像,139.71464195,35.63460241
13109,3,3001,原美術館,北品川4-7-25,4,数値地図,139.73589052,35.62182381
13110,3,3001,長泉院附属現代彫刻美術館,中目黒4-12-18,4,数値地図,139.70308737,35.63595760
13110,3,3001,東京大学大学院総合文化研究科教養学部美術博物館,駒場3-8-1,0,数値地図画像,139.68461032,35.65989611
13110,3,3001,東京都写真美術館,三田1-13-1,2,数値地図画像,139.73943630,35.65287031
13110,3,3001,東京都立芸術高等学校美術館,大橋2-18-58,2,数値地図画像,139.68412444,35.65450782
13110,3,3001,日本民藝館,駒場4-3-33,4,数値地図,139.67929408,35.66081810
13110,3,3001,目黒区美術館,目黒2-4-36,4,数値地図画像,139.70785920,35.63545220
13111,3,3001,大田区立龍子記念館,中央4-2-1,3,数値地図画像,140.87930748,38.25819908
13111,3,3001,池上本門寺霊寶殿,池上1-1-1,4,数値地図画像,139.70540302,35.57979756
13112,3,3001,五島美術館,上野毛3-9-25,4,数値地図,139.63558583,35.61221464
13112,3,3001,世田谷美術館,砧公園1-2,3,数値地図画像,139.62185562,35.63177022
13112,3,3001,静嘉堂文庫美術館,岡本2-23-1,4,数値地図,139.61927316,35.62233268
13112,3,3001,長谷川町子美術館,桜新町1-30-6,4,数値地図,139.64358422,35.62796828
13113,3,3001,ワタリウム美術館,神宮前3-7-6,4,数値地図画像,139.71337128,35.67066781
13113,3,3001,戸栗美術館,松濤1-11-3,4,数値地図,139.69279290,35.66142948
13113,3,3001,渋谷区立松濤美術館,松濤2-14-14,3,数値地図画像,139.69178753,35.65867976
13113,3,3001,太田記念美術館,神宮前1-10-10,4,数値地図,139.70496930,35.66940110
13113,3,3001,刀剣博物館,代々木4-25-10,4,数値地図,139.69071730,35.68163545
13116,3,3001,熊谷守一美術館,千早2-27-6,4,数値地図画像,139.69085127,35.73373787
13117,3,3001,大谷美術館,西ヶ原1-27-39,4,数値地図画像,139.74585734,35.74307981
13119,3,3001,日本書道美術館,常盤台1-3-1,4,数値地図,
13119,3,3001,板橋区立美術館,赤塚5-34-27,3,数値地図,139.64445877,35.78425855
13120,3,3001,ちひろ美術館・東京,下石神井4-7-2,4,数値地図,139.60497821,35.72839445
13120,3,3001,光が丘美術館,田柄5-27-25,4,数値地図画像,139.63243295,35.75986668
13120,3,3001,日本大学芸術学部芸術資料館,旭丘2-42-1,4,数値地図画像,139.36833136,35.66263502
13120,3,3001,練馬区立美術館,貫井1-36-16,3,数値地図,139.63610024,35.73700546
13201,3,3001,村内美術館,左入町787,4,数値地図,139.33640021,35.67926855
13201,3,3001,東京富士美術館,谷野町492-1,4,数値地図,139.32907005,35.68626759
13203,3,3001,武蔵野市立吉祥寺美術館,吉祥寺本町1-8-16,3,数値地図画像,
13204,3,3001,三鷹の森ジブリ美術館（三鷹市立アニメーション美術館）,下連雀1-1-83,3,数値地図画像,139.57036571,35.69629164
13205,3,3001,玉堂美術館,御岳1-75,4,数値地図画像,139.18409711,35.80007334
13205,3,3001,青梅市立美術館・青梅市立小島善太郎美術館,滝ノ上町1346-1,3,数値地図画像,
13205,3,3001,澤乃井櫛かんざし美術館,柚木町3-764-1,4,数値地図画像,139.19679874,35.80335117
13206,3,3001,大国魂神社宝物殿,宮町3-1,4,数値地図画像,134.04546049,34.32482253
13206,3,3001,府中市美術館,浅間町1-3,3,数値地図画像,139.49128998,35.67765858
13209,3,3001,西山美術館,野津田町1000,4,数値地図画像,139.45450195,35.58971280
13209,3,3001,町田市立国際版画美術館,原町田4-28-1,3,数値地図,139.45525860,35.54388382
13212,3,3001,実践女子学園香雪記念資料館,大坂上4-1-1,4,数値地図画像,139.38993207,35.67139555
13224,3,3001,多摩美術大学美術館,落合1-33-1,4,数値地図画像,139.42827511,35.62354936
13101,3,3002,科学技術館,北の丸公園2-1,4,数値地図,139.75302259,35.69118869
13101,3,3002,憲政記念館,永田町1-1-1,1,数値地図画像,139.74715134,35.67842326
13101,3,3002,交通博物館,神田須田町1-25,4,数値地図,139.77004910,35.69695800
13101,3,3002,自転車文化センター,北の丸公園2-1,4,数値地図,139.75302259,35.69118869
13101,3,3002,昭和館,九段南1-6-1,1,数値地図画像,139.75110037,35.69520487
13101,3,3002,千秋文庫博物館,九段南2-1-36,4,数値地図,139.74653691,35.69324663
13101,3,3002,千代田区立四番町歴史民俗資料館,四番町1,3,数値地図画像,139.73959044,35.68942465
13101,3,3002,逓信総合博物館,大手町2-3-1,1,数値地図,139.76714953,35.68675623
13101,3,3002,天理ギャラリー,神田錦町1-9,4,数値地図画像,139.76436345,35.69179727
13101,3,3002,日本カメラ博物館,一番町25,4,数値地図画像,139.74257921,35.68606398
13101,3,3002,明治大学博物館,神田駿河台1-1,4,数値地図,139.76144674,35.69752990
13101,3,3002,靖國神社遊就館,九段北3-1-1,4,数値地図画像,139.74254834,35.69403811
13102,3,3002,ペンステーション,京橋2-6-21,4,数値地図画像,139.77056889,35.67677961
13102,3,3002,凧の博物館,日本橋1-12-10,4,数値地図画像,139.77562684,35.68253192
13102,3,3002,中央区立築地社会教育会館・郷土資料館,築地4-15-1,3,数値地図画像,139.76819448,35.66633624
13102,3,3002,日本銀行金融研究所貨幣博物館,日本橋本石町1-3-1,0,数値地図画像,139.77179091,35.68537039
13103,3,3002,ＮＨＫ放送博物館,愛宕2-1-1,0,数値地図,139.74829070,35.66379434
13103,3,3002,ユニセフハウス,高輪4-6-12,4,数値地図画像,139.73302939,35.62797018
13103,3,3002,虎屋ギャラリー,赤坂4-9-22,4,数値地図画像,139.73262494,35.67528715
13103,3,3002,厚生労働省産業安全技術館,芝5-35-1,1,数値地図,139.74564433,35.64577681
13103,3,3002,港区立港郷土資料館,芝5-28-4,3,数値地図画像,139.74520266,35.64707666
13103,3,3002,東京海洋大学海洋科学部附属水産資料館,港南4-5-7東京海洋大学品川キャンパス内,0,数値地図画像,139.74764492,35.62697079
13103,3,3002,東京都公文書館,海岸1-13-17,2,数値地図画像,139.76133993,35.65414018
13103,3,3002,物流博物館,高輪4-7-15,4,数値地図画像,139.73228220,35.62905060
13104,3,3002,宮城道雄記念館,中町35,4,数値地図画像,140.56254345,39.59471520
13104,3,3002,高麗博物館,大久保1-12-1,4,数値地図画像,139.70371271,35.69844221
13104,3,3002,国立印刷局博物館（お札と切手の博物館）,市谷本村町9-5,0,数値地図画像,
13104,3,3002,新宿歴史博物館,三栄町22,3,数値地図,136.68983253,35.06597398
13104,3,3002,早稲田大学坪内博士記念演劇博物館,西早稲田1-6-1,4,数値地図,139.71907205,35.70914975
13104,3,3002,秩父宮記念スポーツ博物館,霞ヶ丘町10-2,0,数値地図画像,139.71554862,35.67683938
13104,3,3002,釣り文化資料館,愛住町18-7,4,数値地図画像,139.71948106,35.69084624
13104,3,3002,東京女子医科大学史料室・吉岡彌生記念室,河田町8-1,4,数値地図画像,136.74178558,35.18503549
13104,3,3002,東京消防庁消防防災資料センター消防博物館,四谷3-10,2,数値地図画像,139.71966170,35.68812154
13104,3,3002,平和祈念展示資料館,西新宿2-6-1,0,数値地図画像,139.69259453,35.69142049
13104,3,3002,民音音楽博物館,信濃町8,4,数値地図画像,139.71928973,35.68261937
13104,3,3002,野口英世記念会館展示室,大京町26,4,数値地図画像,139.71633996,35.68333589
13105,3,3002,印刷博物館,水道1-3-3,4,数値地図画像,139.74159505,35.70923087
13105,3,3002,東京大学総合研究博物館,本郷7-3-1,0,数値地図画像,139.76277377,35.71205616
13105,3,3002,東京大学総合研究博物館・小石川分館,白山3-7-1,0,数値地図画像,139.74435006,35.71847994
13105,3,3002,東京都水道歴史館,本郷2-7-1,2,数値地図画像,139.76043822,35.70302926
13105,3,3002,日本女子大学成瀬記念館,目白台2-8-1,4,数値地図,
13105,3,3002,文京ふるさと歴史館,本郷4-9-29,3,数値地図画像,139.75660768,35.70798417
13105,3,3002,野球体育博物館,後楽1-3-61,4,数値地図画像,139.75272149,35.70486136
13106,3,3002,エース世界のバッグ＆ラゲージ館,駒形1-8-10,4,数値地図画像,139.79530271,35.70805736
13106,3,3002,国立科学博物館,上野公園7-20,0,数値地図,139.77678407,35.71562022
13106,3,3002,太皷館,西浅草2-1-1,4,数値地図画像,139.79177761,35.71185694
13106,3,3002,台東区立一葉記念館,西浅草3-25-6,3,数値地図画像,
13106,3,3002,台東区立下町風俗資料館,上野公園2-1,3,数値地図画像,139.77117618,35.71237036
13106,3,3002,皮革産業資料館,橋場1-36-2,0,数値地図画像,139.80824917,35.72404895
13107,3,3002,すみだ郷土文化資料館,向島2-3-5,3,数値地図画像,139.80588158,35.71390440
13107,3,3002,セイコー時計資料館,東向島3-9-7,4,数値地図画像,139.81324875,35.72673785
13107,3,3002,ブレーキ博物館,江東橋1-5-5,4,数値地図画像,139.80939995,35.69414218
13107,3,3002,相撲博物館,横網1-3-28,4,数値地図,139.79360971,35.69721688
13107,3,3002,東京都江戸東京博物館,横網1-4-1,2,数値地図,139.79597365,35.69661144
13107,3,3002,東京都復興記念館,横網2-3-25,2,数値地図画像,139.79613159,35.69912502
13107,3,3002,東武博物館,東向島4-28-16,4,数値地図画像,139.81903922,35.72347987
13108,3,3002,ガスの科学館,豊洲6-3-16,4,数値地図,
13108,3,3002,江東区森下文化センター「田河水泡・のらくろ館」,森下3-12-17,3,数値地図画像,139.80217961,35.68520736
13108,3,3002,江東区深川江戸資料館,白河1-3-28,3,数値地図画像,139.80055269,35.68109086
13108,3,3002,江東区中川船番所資料館,大島9-1-15,3,数値地図画像,139.84628434,35.68767705
13108,3,3002,江東区芭蕉記念館,常盤1-6-3,3,数値地図画像,139.79405565,35.68612668
13108,3,3002,第五福竜丸展示館,夢の島3-2,2,数値地図画像,139.83628072,35.65032592
13108,3,3002,東京大空襲・戦災資料センター,北砂1-5-4,4,数値地図画像,139.82227590,35.68167734
13108,3,3002,日本科学未来館,青海2-41,0,数値地図画像,
13109,3,3002,杉野学園衣裳博物館,上大崎4-6-19,4,数値地図,139.71585582,35.63162222
13109,3,3002,船の科学館,東八潮3-1,4,数値地図,139.77236542,35.62034465
13109,3,3002,品川区立品川歴史館,大井6-11-1,3,数値地図画像,139.73015299,35.59665998
13109,3,3002,翡翠原石館,北品川4-5-12,4,数値地図画像,139.73530452,35.62042119
13110,3,3002,目黒寄生虫館,下目黒4-1-1,4,数値地図画像,139.70665107,35.63169983
13110,3,3002,目黒区守屋教育会館郷土資料室,五本木2-20-17,3,数値地図画像,
13111,3,3002,大田区多摩川台公園古墳展示室,田園調布1-63-1,3,数値地図画像,139.66706202,35.58997937
13111,3,3002,大田区立郷土博物館,南馬込5-11-13,3,数値地図,139.71060485,35.58847150
13112,3,3002,岡本公園民家園,岡本2-19-1,3,数値地図画像,
13112,3,3002,賀川豊彦記念松沢資料館,上北沢3-8-19,4,数値地図画像,139.62589833,35.66793256
13112,3,3002,駒澤大学禅文化歴史博物館,駒沢1-23-1,4,数値地図画像,139.65837461,35.62957394
13112,3,3002,次大夫堀公園民家園,喜多見5-27-14,3,数値地図画像,139.59955212,35.63068934
13112,3,3002,昭和女子大学光葉博物館,太子堂1-7,4,数値地図,139.67591994,35.64365608
13112,3,3002,世田谷区立郷土資料館,世田谷1-29-18,3,数値地図,139.64766125,35.64139177
13112,3,3002,世田谷文学館,南烏山1-10-10,3,数値地図画像,139.60893578,35.66707377
13112,3,3002,東京農業大学「食と農」の博物館,上用賀2-4-28,4,数値地図画像,139.63166269,35.63893335
13112,3,3002,齋田記念館,代田3-23-35,4,数値地図,
13113,3,3002,たばこと塩の博物館,神南1-16-8,4,数値地図画像,139.69952836,35.66327665
13113,3,3002,恵比寿麦酒記念館,恵比寿4-20-1,4,数値地図画像,139.71440562,35.64322921
13113,3,3002,古賀政男音楽博物館,上原3-6-12,4,数値地図,139.68003821,35.66782010
13113,3,3002,電力館,神南1-12-10,4,数値地図画像,139.70092266,35.66373218
13113,3,3002,文化学園服飾博物館,代々木3-22-7,4,数値地図画像,139.69491397,35.68623503
13113,3,3002,明治神宮宝物殿,代々木神園町1-1,4,数値地図,139.69989727,35.67587523
13113,3,3002,國學院大學考古学資料館,東4-10-28,4,数値地図画像,139.71164983,35.65564442
13113,3,3002,國學院大學神道資料館,東4-10-28,4,数値地図画像,139.71164983,35.65564442
13114,3,3002,山崎記念中野区立歴史民俗資料館,江古田4-3-4,3,数値地図画像,139.66504278,35.72437151
13115,3,3002,杉並区立郷土博物館,大宮1-20-8,3,数値地図,139.57769957,35.92171909
13116,3,3002,学習院大学史料館,目白1-5-1,4,数値地図,139.70899474,35.72003991
13116,3,3002,古代オリエント博物館,東池袋3-1-4,4,数値地図,139.72078505,35.72853095
13116,3,3002,切手の博物館,目白1-4-23,4,数値地図,139.70580620,35.71829280
13116,3,3002,豊島区立郷土資料館,西池袋2-37-4,3,数値地図画像,139.70676961,35.72772233
13117,3,3002,紙の博物館,王子1-1-3,4,数値地図,139.73869378,35.74982614
13117,3,3002,渋沢史料館,西ケ原2-16-1,4,数値地図,139.73973260,35.74919012
13117,3,3002,田端文士村記念館,田端6-1-2,4,数値地図画像,
13117,3,3002,北区飛鳥山博物館,王子1-1-3,3,数値地図画像,139.73869378,35.74982614
13118,3,3002,荒川区立荒川ふるさと文化館,南千住6-63-1,3,数値地図画像,139.79541521,35.73746593
13119,3,3002,東京家政大学博物館,加賀1-18-1,4,数値地図,139.72009787,35.75576949
13119,3,3002,板橋区立教育科学館,常盤台4-14-1,3,数値地図画像,
13119,3,3002,板橋区立郷土資料館,赤塚5-35-25,3,数値地図画像,139.64310886,35.78546112
13120,3,3002,唐澤博物館,豊玉北3-5-5,4,数値地図画像,139.66255929,35.73303158
13120,3,3002,練馬区郷土資料室,石神井台1-16-31,3,数値地図画像,139.59938395,35.73642114
13121,3,3002,足立区立郷土博物館,大谷田5-20-1,3,数値地図,139.84142526,35.78443554
13122,3,3002,葛飾区教育資料館,水元4-21-1,3,数値地図画像,139.86388187,35.78798490
13122,3,3002,葛飾区郷土と天文の博物館,白鳥3-25-1,3,数値地図,139.84335397,35.75291192
13123,3,3002,江戸川区郷土資料室,松島1-38-1,3,数値地図画像,130.43397031,33.62628148
13123,3,3002,地下鉄博物館,東葛西6-3-1,4,数値地図,139.87378271,35.66352559
13201,3,3002,八王子市こども科学館（サイエンスドーム八王子）,大横町9-13,3,数値地図画像,139.32780700,35.66484498
13201,3,3002,八王子市郷土資料館,上野町33,3,数値地図,139.32630467,35.65565985
13202,3,3002,国立音楽大学楽器学資料館,柏町5-5-1,4,数値地図画像,139.57145596,35.82737037
13202,3,3002,昭和天皇記念館,緑町3173,1,数値地図画像,139.40788769,35.70335899
13202,3,3002,立川市歴史民俗資料館,富士見町3-12-34,3,数値地図画像,139.38992003,35.69690926
13203,3,3002,成蹊学園史料館,吉祥寺北町3-3-1,4,数値地図画像,139.57336761,35.71158166
13204,3,3002,国際基督教大学博物館・湯浅八郎記念館,大沢3-10-2,4,数値地図画像,139.53082799,35.68655025
13204,3,3002,中近東文化センター付属博物館,大沢3-10-31,4,数値地図画像,139.53387765,35.68877786
13205,3,3002,吉川英治記念館,柚木町1-101-1,4,数値地図画像,139.21308336,35.79631320
13205,3,3002,昭和レトロ商品博物館,住江町65,4,数値地図画像,139.26045888,35.78868410
13205,3,3002,青梅きもの博物館,梅郷4-629,4,数値地図画像,139.22032968,35.78805325
13205,3,3002,青梅市郷土博物館,駒木町1-684,3,数値地図,139.25670382,35.78375400
13205,3,3002,青梅鉄道公園,勝沼2-155,4,数値地図画像,139.26335015,35.79224766
13206,3,3002,ＪＲＡ競馬博物館,日吉町1-1,4,数値地図画像,139.46066950,35.69979421
13206,3,3002,府中市郷土の森博物館,南町6-32,4,数値地図,139.47301715,35.65652994
13207,3,3002,家具の博物館,中神町1148,4,数値地図画像,139.37794560,35.71366534
13208,3,3002,調布市郷土博物館,小島町3-26-2,3,数値地図,139.53619082,35.64689761
13208,3,3002,調布市武者小路実篤記念館,若葉町1-8-30,3,数値地図画像,139.58129118,35.65671030
13209,3,3002,玉川大学教育博物館,玉川学園6-1-1,4,数値地図画像,139.46464048,35.56620963
13209,3,3002,町田市立自由民権資料館,野津田町897,3,数値地図画像,139.45329928,35.58885726
13209,3,3002,町田市立博物館,本町田3562,3,数値地図,139.45111930,35.56735075
13209,3,3002,東京家政学院生活文化博物館,相原町2600,4,数値地図,
13210,3,3002,東京農工大学工学部附属繊維博物館,中町2-24-16,0,数値地図,139.56722950,35.70608771
13211,3,3002,ＧＡＳ　ＭＵＳＥＵＭ（がす資料館）,大沼町2-590,4,数値地図画像,
13211,3,3002,ふれあい下水道館,上水本町1-25-31,3,数値地図画像,139.46459894,35.72013638
13212,3,3002,日野市郷土資料館,程久保550,3,数値地図画像,139.41150037,35.65253716
13213,3,3002,高松宮記念ハンセン病資料館,青葉町4-1-13,4,数値地図画像,139.50032176,35.76760689
13213,3,3002,東村山ふるさと歴史館,諏訪町1-6-3,3,数値地図画像,139.46552473,35.76675887
13213,3,3002,徳蔵寺板碑保存館,諏訪町1-26-3,4,数値地図画像,139.46797993,35.77069740
13214,3,3002,国分寺市文化財資料展示室,西元町3-10-7,3,数値地図画像,139.47047178,35.69053995
13214,3,3002,国分寺市文化財保存館,西元町1,3,数値地図画像,139.47201317,35.69439788
13214,3,3002,国分寺市民俗資料室,本多5-24-11,3,数値地図画像,139.48514764,35.70679121
13215,3,3002,くにたち郷土文化館,谷保6231,3,数値地図画像,139.43260604,35.67900411
13215,3,3002,たましん歴史・美術館,中1-9-52,4,数値地図,139.44623194,35.69809405
13218,3,3002,福生市郷土資料室,熊川850-1,3,数値地図画像,139.33754568,35.73209287
13220,3,3002,東大和市立郷土博物館,奈良橋1-260-2,3,数値地図,139.42296496,35.75513120
13221,3,3002,清瀬市郷土博物館,上清戸2-6-41,3,数値地図,139.52105859,35.77974756
13223,3,3002,武蔵村山市立歴史民俗資料館,本町5-21-1,3,数値地図画像,139.67633790,35.68458475
13224,3,3002,パルテノン多摩,落合2-35,4,数値地図画像,139.42536720,35.61944423
13224,3,3002,旧多摩聖蹟記念館,連光寺5-1-1,3,数値地図,139.46062727,35.63801239
13224,3,3002,東京都埋蔵文化財センター,落合1-14-2,4,数値地図画像,139.42765007,35.62602960
13227,3,3002,羽村市郷土博物館,羽741,3,数値地図,139.30331420,35.75505305
13228,3,3002,あきる野市五日市郷土館,五日市920-1,3,数値地図画像,139.21698191,35.72842936
13229,3,3002,多摩六都科学館,芝久保町5-10-64,3,数値地図画像,139.52290416,35.73482785
13303,3,3002,瑞穂町郷土資料館,大字石畑1962,3,数値地図画像,139.35675626,35.77462156
13308,3,3002,奥多摩水と緑のふれあい館,原5,3,数値地図画像,140.44847137,37.83643548
13361,3,3002,伊豆大島火山博物館,元町字神田屋敷617,3,数値地図,139.36002568,34.74401183
13361,3,3002,大島町貝類博物館「ぱれ・らめーる」,元町2-20-1,3,数値地図画像,139.65234183,35.87181911
13363,3,3002,新島村博物館,本村2-36-3,3,数値地図画像,139.25922090,34.38159539
13364,3,3002,神津島村郷土資料館,118,3,数値地図画像,139.76208939,35.66725543
13401,3,3002,八丈島歴史民俗資料館,大員郷1186,3,数値地図画像,
13101,3,3003,(財)石川文化事業財団お茶の水図書館,神田駿河台2-9,4,数値地図画像,139.75959671,35.70041563
13101,3,3003,千代田区立四番町図書館,四番町1,3,数値地図画像,139.73959044,35.68942465
13101,3,3003,千代田区立昌平まちかど図書館,外神田3-4-7,3,数値地図画像,139.76979339,35.70122142
13101,3,3003,千代田区立神田まちかど図書館,神田司町2-16,3,数値地図画像,139.76839375,35.69317780
13101,3,3003,千代田区立千代田図書館,九段南1-6-11,3,数値地図画像,139.75248087,35.69386061
13101,3,3003,東京都立日比谷図書館,日比谷公園1-4,2,数値地図画像,139.75455930,35.67183251
13102,3,3003,中央区立京橋図書館,築地1-1-1,3,数値地図画像,139.77200230,35.67058588
13102,3,3003,中央区立月島図書館,月島4-1-1,3,数値地図画像,139.78214069,35.66205932
13102,3,3003,中央区立日本橋図書館,日本橋人形町1-1-17,3,数値地図画像,139.78141837,35.68468465
13103,3,3003,(財)三康文化研究所附属三康図書館,芝公園4-7-4,4,数値地図画像,139.74684939,35.65718947
13103,3,3003,港区立みなと図書館,芝公園3-2-25,3,数値地図画像,139.75012402,35.65989482
13103,3,3003,港区立港南図書館,港南3-3-17,3,数値地図画像,139.74956398,35.63295626
13103,3,3003,港区立高輪図書館,高輪1-16-25（高輪コミュニティーぷらざ3・4F）,3,数値地図画像,139.73408994,35.64193252
13103,3,3003,港区立三田図書館,芝5-28-4,3,数値地図画像,139.74520266,35.64707666
13103,3,3003,港区立赤坂図書館,南青山1-5-15,3,数値地図画像,
13103,3,3003,港区立麻布図書館,六本木5-12-24,3,数値地図画像,139.73579757,35.65757804
13103,3,3003,東京都立中央図書館,南麻布5-7-13,2,数値地図画像,139.72637084,35.65211452
13104,3,3003,新宿区立角筈図書館,西新宿4-33-7,3,数値地図画像,139.68908393,35.68620988
13104,3,3003,新宿区立戸山図書館,戸山2-11-101,3,数値地図画像,
13104,3,3003,新宿区立四谷図書館,内藤町87,3,数値地図画像,139.71442052,35.68757426
13104,3,3003,新宿区立西落合図書館,西落合4-13-17,3,数値地図画像,139.67894986,35.72576342
13104,3,3003,新宿区立大久保図書館,大久保2-12-7,3,数値地図画像,139.70678454,35.70157804
13104,3,3003,新宿区立中央図書館,下落合1-9-8,3,数値地図画像,139.69894299,35.71600953
13104,3,3003,新宿区立中町図書館,中町25,3,数値地図画像,140.56267402,39.59406529
13104,3,3003,新宿区立鶴巻図書館,早稲田鶴巻町521,3,数値地図画像,139.72505771,35.70735844
13104,3,3003,新宿区立北新宿図書館,北新宿3-20-2,3,数値地図画像,139.68946101,35.70297186
13105,3,3003,文京区立鴎外記念本郷図書館,千駄木1-23-4,3,数値地図画像,139.76062921,35.72484930
13105,3,3003,文京区立根津図書室,根津2-20-7,3,数値地図画像,139.76417636,35.71920834
13105,3,3003,文京区立小石川図書館,小石川5-9-20,3,数値地図画像,139.74013382,35.71696055
13105,3,3003,文京区立真砂中央図書館,本郷4-8-15,3,数値地図画像,139.75698262,35.70853967
13105,3,3003,文京区立水道端図書館,水道2-16-14,3,数値地図画像,139.73770369,35.71058896
13105,3,3003,文京区立千石図書館,千石1-25-3,3,数値地図画像,139.74371370,35.72758167
13105,3,3003,文京区立大塚公園みどりの図書室,大塚4-49-2,3,数値地図画像,139.73236759,35.72380680
13105,3,3003,文京区立天神図書室,湯島3-20-7（エミナンス湯島1F）,3,数値地図画像,139.76752387,35.70534870
13105,3,3003,文京区立湯島図書館,本郷3-10-18,3,数値地図画像,139.76369635,35.70398482
13105,3,3003,文京区立本駒込図書館,本駒込4-35-15,3,数値地図画像,139.75514043,35.73346756
13105,3,3003,文京区立目白台図書館,関口3-17-9,3,数値地図画像,139.72548794,35.71513259
13106,3,3003,台東区立根岸図書館,根岸5-18-13,3,数値地図画像,139.79050170,35.72901919
13106,3,3003,台東区立石浜図書館,橋場1-35-16,3,数値地図画像,
13106,3,3003,台東区立中央図書館,西浅草3-25-16,3,数値地図画像,139.78958856,35.71752307
13106,3,3003,台東区立中央図書館浅草橋分室,浅草橋2-8-7,3,数値地図画像,139.78335974,35.69952476
13107,3,3003,墨田区立あずま図書館,文花1-19-1,3,数値地図画像,139.82408286,35.71053623
13107,3,3003,墨田区立寺島図書館,東向島3-34-4,3,数値地図画像,139.81530920,35.72191881
13107,3,3003,墨田区立八広図書館,八広5-10-1-104,3,数値地図画像,
13107,3,3003,墨田区立立花図書館,立花6-8-1-101,3,数値地図画像,
13107,3,3003,墨田区立緑図書館,緑2-24-5,3,数値地図画像,139.80060935,35.69575874
13108,3,3003,江東区立亀戸図書館,亀戸7-39-9,3,数値地図画像,139.83939562,35.69693705
13108,3,3003,江東区立古石場図書館,古石場2-13-2,3,数値地図画像,
13108,3,3003,江東区立江東図書館,南砂6-7-52,3,数値地図画像,139.83409685,35.67182614
13108,3,3003,江東区立砂町図書館,北砂5-1-7,3,数値地図画像,139.83203579,35.68041390
13108,3,3003,江東区立城東図書館,大島4-5-1,3,数値地図画像,139.82686406,35.68909319
13108,3,3003,江東区立深川図書館,清澄3-3-39,3,数値地図画像,139.79676295,35.67913020
13108,3,3003,江東区立東雲図書館,東雲2-7-5-201,3,数値地図画像,
13108,3,3003,江東区立東大島図書館,大島9-4-2-101,3,数値地図画像,
13108,3,3003,江東区立東陽図書館,東陽2-3-6,3,数値地図画像,139.81831234,35.66751794
13108,3,3003,江東区立白河こどもとしょかん,白河4-3-29,3,数値地図画像,
13108,3,3003,江東区立豊洲図書館,豊洲2-2-18,3,数値地図画像,139.79525365,35.65423000
13109,3,3003,品川区立ゆたか図書館,豊町1-17-7,3,数値地図画像,139.72236141,35.61159126
13109,3,3003,品川区立荏原図書館,中延1-9-15,3,数値地図画像,139.71059573,35.61215210
13109,3,3003,品川区立源氏前図書館,中延4-14-17,3,数値地図画像,139.70997653,35.60550838
13109,3,3003,品川区立五反田図書館,西五反田6-5-1,3,数値地図画像,139.71663936,35.62245939
13109,3,3003,品川区立大井図書館,大井5-19-14,3,数値地図画像,139.72897802,35.59819863
13109,3,3003,品川区立大崎図書館,大崎2-4-8,3,数値地図画像,139.72590258,35.61855448
13109,3,3003,品川区立南大井図書館,南大井3-7-13,3,数値地図画像,
13109,3,3003,品川区立二葉図書館,二葉1-4-25,3,数値地図画像,139.72676118,35.60802236
13109,3,3003,品川区立八潮図書館,八潮5-10-27,3,数値地図画像,139.75125410,35.60015206
13109,3,3003,品川区立品川図書館,北品川2-32-3,3,数値地図画像,139.74237352,35.61683850
13110,3,3003,目黒区立守屋図書館,五本木2-20-15,3,数値地図画像,139.68903859,35.63410472
13110,3,3003,目黒区立洗足図書館,洗足2-8-26,3,数値地図画像,139.69236123,35.61237128
13110,3,3003,目黒区立大橋図書館,大橋2-16-34,3,数値地図画像,
13110,3,3003,目黒区立中目黒駅前図書館,上目黒2-1-3,3,数値地図画像,139.69863752,35.64323168
13110,3,3003,目黒区立八雲中央図書館,八雲1-1-1,3,数値地図画像,139.67274030,35.62154186
13110,3,3003,目黒区立目黒区民センター図書館,目黒2-4-36,3,数値地図画像,139.70785920,35.63545220
13110,3,3003,目黒区立目黒本町図書館,目黒本町2-1-20,3,数値地図画像,139.69522445,35.62522258
13110,3,3003,目黒区立緑が丘図書館,緑が丘2-14-23,3,数値地図画像,139.67327682,35.60935165
13111,3,3003,大田区立羽田図書館,羽田1-11-1,3,数値地図画像,139.74346598,35.55041421
13111,3,3003,大田区立下丸子図書館,下丸子2-18-11,3,数値地図画像,139.68803950,35.56585562
13111,3,3003,大田区立蒲田駅前図書館,蒲田5-13-26-301,3,数値地図画像,
13111,3,3003,大田区立蒲田図書館,東蒲田1-19-22,3,数値地図画像,139.72840187,35.56366123
13111,3,3003,大田区立久が原図書館,久が原2-28-4,3,数値地図画像,139.69527357,35.57933371
13111,3,3003,大田区立洗足池図書館,南千束2-2-10,3,数値地図画像,139.69192555,35.60076976
13111,3,3003,大田区立多摩川図書館,多摩川2-24-63,3,数値地図画像,139.70230784,35.55605405
13111,3,3003,大田区立大森西図書館,大森西5-2-13,3,数値地図画像,139.72602383,35.57185733
13111,3,3003,大田区立大森東図書館,大森東1-31-3-104,3,数値地図画像,
13111,3,3003,大田区立大森南図書館,大森南1-17-7,3,数値地図画像,139.73976801,35.56342867
13111,3,3003,大田区立大田図書館,田園調布南25-1,3,数値地図,139.67617846,35.58161698
13111,3,3003,大田区立池上図書館,池上3-27-6,3,数値地図画像,139.70321748,35.57475108
13111,3,3003,大田区立入新井図書館,大森北1-32-5,3,数値地図画像,
13111,3,3003,大田区立馬込図書館,中馬込2-26-10,3,数値地図画像,139.71041292,35.59566784
13111,3,3003,大田区立浜竹図書館,西糀谷3-32-7,3,数値地図画像,139.73734660,35.55334113
13111,3,3003,大田区立六郷図書館,南六郷3-10-1,3,数値地図画像,139.71429619,35.54361694
13112,3,3003,世田谷区立烏山図書館,南烏山6-2-19,3,数値地図画像,139.60063914,35.66889830
13112,3,3003,世田谷区立奥沢図書館,奥沢3-47-8,3,数値地図画像,139.67270770,35.60367734
13112,3,3003,世田谷区立下馬図書館,下馬2-32-1,3,数値地図画像,139.67627276,35.64148967
13112,3,3003,世田谷区立鎌田図書館,鎌田3-35-1,3,数値地図画像,139.61343210,35.62235484
13112,3,3003,世田谷区立砧図書館,祖師谷3-10-4,3,数値地図画像,139.60406488,35.64228773
13112,3,3003,世田谷区立玉川台図書館,玉川台1-6-15,3,数値地図画像,
13112,3,3003,世田谷区立桜丘図書館,桜丘5-14-1,3,数値地図画像,139.62218555,35.64479619
13112,3,3003,世田谷区立上北沢図書館,上北沢3-8-9,3,数値地図画像,139.62550116,35.66746593
13112,3,3003,世田谷区立深沢図書館,深沢4-33-11,3,数値地図画像,139.65380580,35.62022485
13112,3,3003,世田谷区立世田谷図書館,若林4-29-26,3,数値地図画像,139.65498274,35.64587197
13112,3,3003,世田谷区立代田図書館,代田6-34-13,3,数値地図画像,139.66066505,35.66288404
13112,3,3003,世田谷区立中央図書館,弦巻3-16-8,3,数値地図画像,139.64434219,35.63761992
13112,3,3003,世田谷区立梅丘図書館,代田4-38-10,3,数値地図画像,139.65474072,35.65743727
13112,3,3003,世田谷区立粕谷図書館,粕谷4-13-6,3,数値地図画像,139.60516398,35.66310744
13112,3,3003,世田谷区立尾山台図書館,等々力2-17-14,3,数値地図画像,139.65233424,35.60578755
13113,3,3003,渋谷区立笹塚図書館,笹塚1-27-1,3,数値地図画像,139.66723639,35.67215819
13113,3,3003,渋谷区立渋谷図書館,東1-6-6,3,数値地図画像,139.73583961,35.57707381
13113,3,3003,渋谷区立西原図書館,西原2-28-9,3,数値地図画像,132.46321718,34.43162886
13113,3,3003,渋谷区立中央図書館,神宮前1-5-34,3,数値地図画像,
13113,3,3003,渋谷区立富ケ谷図書館,上原1-46-2,3,数値地図画像,139.68712923,35.66850076
13113,3,3003,渋谷区立本町図書館,本町1-33-5,3,数値地図画像,139.58342259,35.70453823
13114,3,3003,(財)東京子ども図書館,江原町1-19-10,4,数値地図画像,139.67505011,35.72762421
13114,3,3003,中野区立江古田図書館,江古田2-1-11,3,数値地図画像,139.66905352,35.72485213
13114,3,3003,中野区立鷺宮図書館,鷺宮3-22-5,3,数値地図画像,139.63977274,35.72344039
13114,3,3003,中野区立上高田図書館,上高田5-30-15,3,数値地図画像,139.67514771,35.71873909
13114,3,3003,中野区立中央図書館,中野2-9-7,3,数値地図画像,139.67163473,35.70435452
13114,3,3003,中野区立東中野図書館,東中野1-35-5,3,数値地図画像,139.68487245,35.70457711
13114,3,3003,中野区立南台図書館,南台3-26-18,3,数値地図画像,
13114,3,3003,中野区立本町図書館,本町2-13-2,3,数値地図画像,139.98157578,35.69756892
13114,3,3003,中野区立野方図書館,野方3-19-5,3,数値地図画像,139.65434400,35.71742199
13115,3,3003,杉並区立阿佐谷図書館,阿佐谷北3-36-14,3,数値地図画像,139.63323771,35.71167207
13115,3,3003,杉並区立永福図書館,永福4-25-7,3,数値地図画像,139.64076340,35.68069533
13115,3,3003,杉並区立下井草図書館,下井草3-26-5,3,数値地図画像,139.62327975,35.72091524
13115,3,3003,杉並区立柿木図書館,上井草1-6-13,3,数値地図画像,139.61211405,35.72025111
13115,3,3003,杉並区立宮前図書館,宮前5-5-27,3,数値地図画像,139.59900787,35.69323713
13115,3,3003,杉並区立高井戸図書館,高井戸東1-28-1,3,数値地図画像,139.62287591,35.68162250
13115,3,3003,杉並区立高円寺図書館,高円寺南2-36-25,3,数値地図画像,139.65411699,35.70038225
13115,3,3003,杉並区立成田図書館,成田東3-28-5,3,数値地図画像,139.63742423,35.69507130
13115,3,3003,杉並区立西荻図書館,西荻北2-33-9,3,数値地図画像,139.60597619,35.70785511
13115,3,3003,杉並区立中央図書館,荻窪3-40-23,3,数値地図画像,139.62677758,35.70185634
13115,3,3003,杉並区立南荻窪図書館,南荻窪1-10-2,3,数値地図画像,139.61445661,35.69500680
13115,3,3003,立正佼成会付属佼成図書館,和田1-2-1,4,数値地図画像,139.66510257,35.68998660
13116,3,3003,豊島区立駒込図書館,駒込2-2-2,3,数値地図画像,139.74728527,35.73723617
13116,3,3003,豊島区立雑司が谷図書館,雑司が谷3-1-7,3,数値地図画像,139.71365268,35.71969286
13116,3,3003,豊島区立上池袋図書館,上池袋2-45-15,3,数値地図画像,139.71699052,35.73863248
13116,3,3003,豊島区立千早図書館,千早2-44-2,3,数値地図画像,139.68841251,35.73562370
13116,3,3003,豊島区立巣鴨図書館,巣鴨3-8-2,3,数値地図画像,139.73310879,35.73395562
13116,3,3003,豊島区立池袋図書館,池袋3-29-10,3,数値地図画像,139.70579158,35.73595749
13116,3,3003,豊島区立中央図書館,東池袋5-39-18,3,数値地図画像,139.72557633,35.72820055
13116,3,3003,豊島区立目白図書館,目白4-31-8,3,数値地図画像,139.69887593,35.72577788
13117,3,3003,北区立昭和町図書館,昭和町3-10-7,3,数値地図画像,135.51800962,34.62677279
13117,3,3003,北区立上十条図書館,上十条3-3-9,3,数値地図画像,139.71838393,35.76039947
13117,3,3003,北区立神谷図書館,神谷3-35-17,3,数値地図画像,139.73107131,35.77138458
13117,3,3003,北区立赤羽図書館,赤羽南1-13-1,3,数値地図画像,139.72374945,35.77772801
13117,3,3003,北区立赤羽西図書館,赤羽西5-7-5,3,数値地図画像,139.71047567,35.77544178
13117,3,3003,北区立赤羽北図書館,赤羽北1-18-1-111,3,数値地図画像,
13117,3,3003,北区立滝野川図書館,西ヶ原1-23-3,3,数値地図画像,139.74745998,35.74353536
13117,3,3003,北区立滝野川西図書館,滝野川6-21-25,3,数値地図画像,139.72585337,35.74559022
13117,3,3003,北区立中央図書館,王子3-22-3,3,数値地図画像,139.73783513,35.75953062
13117,3,3003,北区立田端図書館,田端3-16-2,3,数値地図画像,139.75689027,35.73443420
13117,3,3003,北区立東十条図書館,東十条3-2-14,3,数値地図画像,139.72856345,35.76519638
13117,3,3003,北区立東田端図書館,田端新町2-14-15,3,数値地図画像,139.76486175,35.74051172
13117,3,3003,北区立浮間図書館,浮間1-8-2-102,3,数値地図画像,
13117,3,3003,北区立文化センター図書館,十条台1-2-1,3,数値地図画像,139.72756125,35.75320885
13117,3,3003,北区立豊島図書館,豊島3-27-22,3,数値地図画像,139.74781753,35.76044747
13118,3,3003,荒川区立荒川図書館,荒川4-27-2,3,数値地図画像,139.78102804,35.73737451
13118,3,3003,荒川区立町屋図書館,町屋5-11-18,3,数値地図画像,
13118,3,3003,荒川区立南千住図書館,南千住6-63-1,3,数値地図画像,139.79541521,35.73746593
13118,3,3003,荒川区立日暮里図書館,東日暮里6-38-4,3,数値地図画像,139.77493664,35.73114395
13118,3,3003,荒川区立尾久図書館,西尾久3-12-12,3,数値地図画像,139.76457769,35.75225738
13119,3,3003,板橋区立高島平図書館,高島平3-13-1,3,数値地図画像,139.65906582,35.78755551
13119,3,3003,板橋区立志村図書館,小豆沢1-8-1,3,数値地図画像,139.69995437,35.77328346
13119,3,3003,板橋区立小茂根図書館,小茂根1-6-2,3,数値地図画像,
13119,3,3003,板橋区立成増図書館,成増3-13-1,3,数値地図画像,139.63232667,35.77870892
13119,3,3003,板橋区立清水図書館,宮本町62-19,3,数値地図画像,139.70331827,35.76590671
13119,3,3003,板橋区立西台図書館,西台3-13-2,3,数値地図画像,139.66879035,35.77393531
13119,3,3003,板橋区立赤塚図書館,赤塚6-38-1,3,数値地図画像,139.64490058,35.77877313
13119,3,3003,板橋区立中央図書館,常盤台1-13-1,3,数値地図画像,
13119,3,3003,板橋区立東板橋図書館,加賀1-10-15,3,数値地図画像,139.71574829,35.75440843
13119,3,3003,板橋区立氷川図書館,氷川町28-9,3,数値地図画像,139.70482704,35.75313609
13119,3,3003,板橋区立蓮根図書館,蓮根3-15-1-101,3,数値地図画像,
13119,3,3003,板橋区立蓮根図書館坂下図書室,坂下3-20-1-101,3,数値地図画像,
13120,3,3003,練馬区立稲荷山図書館,大泉町1-3-18,3,数値地図画像,139.60925700,35.76531255
13120,3,3003,練馬区立貫井図書館,貫井1-36-16,3,数値地図画像,139.63610024,35.73700546
13120,3,3003,練馬区立関町図書館,関町南3-11-2,3,数値地図画像,139.58041665,35.72091133
13120,3,3003,練馬区立光が丘図書館,光が丘4-1-5,3,数値地図,139.63001635,35.76307459
13120,3,3003,練馬区立春日町図書館,春日町5-31-2-201,3,数値地図画像,
13120,3,3003,練馬区立小竹図書館,小竹町2-43-1,3,数値地図画像,139.67599107,35.74191428
13120,3,3003,練馬区立石神井図書館,石神井台1-16-31,3,数値地図画像,139.59938395,35.73642114
13120,3,3003,練馬区立大泉図書館,大泉学園町2-21-17,3,数値地図画像,139.58712006,35.76062093
13120,3,3003,練馬区立南大泉図書館,南大泉1-44-7,3,数値地図画像,139.57486066,35.74335034
13120,3,3003,練馬区立平和台図書館,平和台1-36-17,3,数値地図画像,139.66473292,35.76006185
13120,3,3003,練馬区立練馬図書館,豊玉北6-8-1,3,数値地図画像,139.65183793,35.73431449
13121,3,3003,足立区立やよい図書館,中央本町3-15-1,3,数値地図画像,139.80979774,35.77225895
13121,3,3003,足立区立伊興図書館,伊興2-4-22,3,数値地図画像,139.78099941,35.79120877
13121,3,3003,足立区立花畑図書館,花畑4-16-8,3,数値地図画像,139.80748298,35.80293604
13121,3,3003,足立区立宮城コミュニティ図書館,宮城1-15-14,3,数値地図画像,139.75481145,35.75902009
13121,3,3003,足立区立興本図書館,興野1-18-38,3,数値地図画像,139.78230855,35.76827533
13121,3,3003,足立区立江北図書館,江北3-39-4,3,数値地図画像,139.76014907,35.77591271
13121,3,3003,足立区立佐野図書館,佐野2-43-5,3,数値地図画像,139.84026414,35.78812671
13121,3,3003,足立区立鹿浜図書館,鹿浜6-8-1,3,数値地図画像,139.75817393,35.78396166
13121,3,3003,足立区立舎人図書館,舎人1-3-26,3,数値地図画像,139.77316070,35.80600115
13121,3,3003,足立区立常東コミュニティ図書館,千住旭町9-16,3,数値地図画像,139.80838581,35.74689568
13121,3,3003,足立区立新田コミュニティ図書館,新田2-2-2,3,数値地図画像,139.73825123,35.77159310
13121,3,3003,足立区立竹の塚図書館,竹の塚2-25-17,3,数値地図画像,139.79461767,35.79263961
13121,3,3003,足立区立中央図書館,千住5-13-5,3,数値地図画像,139.80267428,35.75654132
13121,3,3003,足立区立東和図書館,東和3-12-9,3,数値地図画像,139.83951468,35.77112338
13121,3,3003,足立区立梅田図書館,梅田7-13-1,3,数値地図画像,139.80070148,35.76835642
13121,3,3003,足立区立保塚図書館,保塚町7-16,3,数値地図画像,139.81597167,35.78686847
13122,3,3003,葛飾区立お花茶屋図書館,お花茶屋2-1-15,3,数値地図画像,139.83869896,35.75119269
13122,3,3003,葛飾区立葛飾図書館,新宿3-7-1,3,数値地図画像,139.70616835,35.69089590
13122,3,3003,葛飾区立鎌倉図書館,鎌倉2-4-5,3,数値地図画像,139.87537110,35.74524094
13122,3,3003,葛飾区立亀有図書館,亀有1-17-5,3,数値地図画像,139.84602845,35.75911949
13122,3,3003,葛飾区立四つ木地区図書館,四つ木4-8-1,3,数値地図画像,139.83380337,35.73682003
13122,3,3003,葛飾区立上小松図書館,東新小岩3-12-1,3,数値地図画像,139.86190105,35.72298477
13122,3,3003,葛飾区立水元図書館,東水元1-7-3,3,数値地図画像,139.86752630,35.77884728
13122,3,3003,葛飾区立西水元地区図書館,西水元2-2-8,3,数値地図画像,139.84906078,35.78494379
13122,3,3003,葛飾区立青戸地区図書館,青戸5-20-6,3,数値地図画像,139.85431700,35.75015679
13122,3,3003,葛飾区立立石図書館,立石1-9-1,3,数値地図画像,139.84572393,35.73720812
13123,3,3003,江戸川区立葛西図書館,江戸川6-24-1,3,数値地図画像,139.87083259,35.67554899
13123,3,3003,江戸川区立鹿骨コミュニティ図書館,鹿骨1-54-2,3,数値地図画像,139.88986829,35.70951096
13123,3,3003,江戸川区立篠崎図書館,篠崎町3-12-20,3,数値地図画像,
13123,3,3003,江戸川区立小岩図書館,東小岩6-15-2,3,数値地図画像,139.88833711,35.73517568
13123,3,3003,江戸川区立小松川図書館,平井1-11-26,3,数値地図画像,139.85097836,35.70149174
13123,3,3003,江戸川区立松江図書館,松江2-1-10,3,数値地図画像,139.87107344,35.69693823
13123,3,3003,江戸川区立清新町コミュニティ図書館,清新町1-2-2,3,数値地図画像,139.85598997,35.65887822
13123,3,3003,江戸川区立西葛西図書館,西葛西5-10-47,3,数値地図画像,139.86291418,35.66485273
13123,3,3003,江戸川区立中央図書館,中央3-1-3,3,数値地図画像,140.87924066,38.26043222
13123,3,3003,江戸川区立東部コミュニティ図書館,東瑞江1-17-1,3,数値地図画像,139.89951006,35.68995839
13201,3,3003,八王子市生涯学習センター図書館,東町5-6,3,数値地図画像,139.55607615,35.67238843
13201,3,3003,八王子市川口図書館,川口町3838,3,数値地図画像,139.29877535,35.68672505
13201,3,3003,八王子市中央図書館,千人町3-3-6,3,数値地図,139.31047541,35.65728425
13201,3,3003,八王子市南大沢図書館,南大沢2-27,3,数値地図画像,139.37926012,35.61194113
13202,3,3003,東京都立多摩図書館,錦町6-3-1,2,数値地図画像,139.41949565,35.68933588
13202,3,3003,立川市錦図書館,錦町3-12-25,3,数値地図画像,139.41624584,35.69114115
13202,3,3003,立川市幸図書館,幸町5-83-1,3,数値地図画像,
13202,3,3003,立川市高松図書館,高松町3-22-5,3,数値地図画像,139.41903682,35.70309543
13202,3,3003,立川市柴崎図書館,柴崎町1-1-43,3,数値地図画像,
13202,3,3003,立川市若葉図書館,若葉町3-34-1,3,数値地図画像,139.43921515,35.72021344
13202,3,3003,立川市上砂図書館,上砂町1-13-1,3,数値地図画像,139.39212473,35.71998725
13202,3,3003,立川市西砂図書館,西砂町6-12-10,3,数値地図画像,139.37204038,35.72957725
13202,3,3003,立川市多摩川図書館,富士見町6-51-1,3,数値地図画像,139.39315608,35.69118223
13202,3,3003,立川市中央図書館,曙町2-36-2（ファーレ立川センタースクエア内）,3,数値地図画像,139.41413167,35.70254814
13203,3,3003,武蔵野市立吉祥寺図書館,吉祥寺本町1-21-13,3,数値地図画像,139.58227267,35.70499371
13203,3,3003,武蔵野市立西部図書館,境5-15-5,3,数値地図画像,139.53462703,35.70228747
13203,3,3003,武蔵野市立中央図書館,吉祥寺北町4-8-3,3,数値地図画像,139.56619044,35.71250641
13204,3,3003,三鷹市立下連雀図書館,下連雀6-13-13,3,数値地図画像,139.56517200,35.68887013
13204,3,3003,三鷹市立三鷹駅前図書館,下連雀3-13-10,3,数値地図画像,139.56311348,35.69958003
13204,3,3003,三鷹市立三鷹図書館,上連雀8-3-3,3,数値地図画像,139.55810887,35.68524815
13204,3,3003,三鷹市立西部図書館,大沢2-6-47,3,数値地図画像,139.53580002,35.68096491
13204,3,3003,三鷹市立東部図書館,牟礼5-8-16,3,数値地図画像,139.57895712,35.68269891
13205,3,3003,青梅市河辺図書館,河辺町6-18-1,3,数値地図画像,139.29368098,35.77851680
13205,3,3003,青梅市今井図書館,今井2-908-1,3,数値地図画像,139.31103128,35.80650284
13205,3,3003,青梅市小曾木図書館,小曾木3-1656-1,3,数値地図画像,139.27513430,35.81802554
13205,3,3003,青梅市新町図書館,新町4-17-1,3,数値地図画像,139.30515201,35.78598288
13205,3,3003,青梅市成木図書館,成木4-644,3,数値地図画像,139.24850964,35.82418260
13205,3,3003,青梅市大門図書館,大門2-288,3,数値地図画像,139.29120553,35.79676458
13205,3,3003,青梅市沢井図書館,沢井2-682,3,数値地図画像,139.19628210,35.80469268
13205,3,3003,青梅市中央図書館,仲町268-9,3,数値地図画像,139.25649544,35.79110315
13205,3,3003,青梅市長淵図書館,長淵6-492-1,3,数値地図画像,139.26856931,35.78036591
13205,3,3003,青梅市東青梅図書館,師岡町3-9-6,3,数値地図画像,139.28236208,35.79063730
13205,3,3003,青梅市梅郷図書館,梅郷3-749-1,3,数値地図画像,139.22432650,35.78658118
13206,3,3003,府中市立押立図書館,押立町5-4,3,数値地図画像,139.51813618,35.65354320
13206,3,3003,府中市立紅葉丘図書館,紅葉丘2-1,3,数値地図画像,138.87779800,35.39747095
13206,3,3003,府中市立桜通り図書館,府中町2-25,3,数値地図画像,139.48285464,35.67577528
13206,3,3003,府中市立四谷図書館,四谷2-75,3,数値地図画像,139.44515819,35.66544492
13206,3,3003,府中市立住吉図書館,住吉町1-61,3,数値地図画像,139.46041535,35.66017925
13206,3,3003,府中市立新町図書館,新町1-66,3,数値地図画像,139.48977306,35.68694359
13206,3,3003,府中市立是政図書館,是政2-20,3,数値地図画像,139.49570405,35.66095232
13206,3,3003,府中市立西府図書館,西府町1-10,3,数値地図画像,
13206,3,3003,府中市立中央図書館,宮町3-1,3,数値地図画像,134.04546049,34.32482253
13206,3,3003,府中市立白糸台図書館,白糸台1-60,3,数値地図画像,139.50618625,35.66700463
13206,3,3003,府中市立府中市生涯学習センター図書館,浅間町1-7,3,数値地図画像,139.61314687,35.46423548
13206,3,3003,府中市立武蔵台図書館,武蔵台2-2,3,数値地図画像,
13206,3,3003,府中市立片町図書館,片町2-17,3,数値地図画像,139.46938092,35.67065054
13207,3,3003,昭島市民図書館,東町2-6-33,3,数値地図画像,139.48463036,35.72353097
13207,3,3003,昭島市民図書館つつじが丘分室,つつじが丘3-1-30,3,数値地図画像,139.37107127,35.71434289
13207,3,3003,昭島市民図書館やまのかみ分室,拝島町3-10-3,3,数値地図画像,139.33538537,35.71092875
13207,3,3003,昭島市民図書館昭和分館,松原町1-2-25,3,数値地図画像,139.35774189,35.71254841
13207,3,3003,昭島市民図書館緑分館,緑町4-13-26,3,数値地図画像,139.34460401,35.71423686
13208,3,3003,調布市立図書館宮の下分館,上石原3-34-10,3,数値地図画像,139.52466363,35.65148267
13208,3,3003,調布市立図書館国領分館,国領町3-12-1,3,数値地図画像,
13208,3,3003,調布市立図書館佐須分館,佐須町4-42-2,3,数値地図画像,139.55618220,35.65867064
13208,3,3003,調布市立図書館若葉分館,若葉町3-16-13,3,数値地図画像,139.58394655,35.65494112
13208,3,3003,調布市立図書館深大寺分館,深大寺北町5-6-1,3,数値地図画像,139.54915161,35.67797656
13208,3,3003,調布市立図書館神代分館,西つつじヶ丘1-40-5,3,数値地図画像,139.57001152,35.66074850
13208,3,3003,調布市立図書館染地分館,染地3-3-1,3,数値地図画像,139.55539232,35.63985170
13208,3,3003,調布市立図書館調和分館,西つつじヶ丘4-22-6,3,数値地図画像,139.57354484,35.65177740
13208,3,3003,調布市立図書館富士見分館,富士見町2-3-26,3,数値地図画像,139.53940883,35.65845381
13208,3,3003,調布市立図書館緑ケ丘分館,緑ヶ丘2-25,3,数値地図画像,139.41147280,35.48841032
13208,3,3003,調布市立中央図書館,小島町2-33-1,3,数値地図画像,139.54130916,35.65098001
13209,3,3003,町田市立さるびあ図書館,中町2-13-23,3,数値地図画像,139.56412704,35.70520164
13209,3,3003,町田市立金森図書館,金森1021,3,数値地図画像,
13209,3,3003,町田市立堺図書館,相原町795-1,3,数値地図画像,
13209,3,3003,町田市立中央図書館,原町田3-2-9,3,数値地図,139.45033133,35.54050345
13209,3,3003,町田市立鶴川図書館,鶴川6-7-2（1-101）,3,数値地図画像,139.46930115,35.59077225
13209,3,3003,町田市立木曽山崎図書館,山崎町2160,3,数値地図画像,139.43672054,35.56837263
13210,3,3003,小金井市立図書館,本町1-1-32,3,数値地図画像,139.51068757,35.69744019
13210,3,3003,小金井市立図書館東分室,東町1-39-1,3,数値地図画像,139.52662805,35.69405487
13210,3,3003,小金井市立図書館緑分室,緑町3-3-23,3,数値地図画像,139.51634495,35.70953623
13211,3,3003,小平市中央図書館,小川町2-1325,3,数値地図,139.47652812,35.72776638
13211,3,3003,小平市中央図書館花小金井北分室,花小金井5-41-3（花小金井北公民館内）,3,数値地図画像,139.51011647,35.73433596
13211,3,3003,小平市中央図書館小川分室,小川町1-1012（小川公民館内）,3,数値地図画像,139.45923252,35.72578279
13211,3,3003,小平市中央図書館上水南分室,上水南町1-27-1（上水南公民館内）,3,数値地図画像,139.48370586,35.71308768
13211,3,3003,小平市立花小金井図書館,花小金井1-3-29,3,数値地図画像,139.51228329,35.72716184
13211,3,3003,小平市立喜平図書館,喜平町3-3-18,3,数値地図画像,139.49086896,35.71731796
13211,3,3003,小平市立小川西町図書館,小川西町4-10-13,3,数値地図画像,139.46176800,35.73514287
13211,3,3003,小平市立上宿図書館,小川町1-345,3,数値地図画像,139.43915078,35.73025947
13211,3,3003,小平市立大沼図書館,大沼町1-128,3,数値地図画像,
13211,3,3003,小平市立仲町図書館,仲町145,3,数値地図画像,139.48487725,35.73089403
13211,3,3003,小平市立津田図書館,津田町3-11-1,3,数値地図画像,
13212,3,3003,日野市立高幡図書館,三沢4-1-12,3,数値地図画像,139.41343056,35.65889203
13212,3,3003,日野市立市政図書室,神明1-12-1,3,数値地図画像,139.82835381,35.79330940
13212,3,3003,日野市立多摩平図書館,多摩平2-9,3,数値地図画像,139.38238015,35.66338520
13212,3,3003,日野市立中央図書館,豊田2-49,3,数値地図,139.38230815,35.65598051
13212,3,3003,日野市立日野図書館,日野本町7-5-14,3,数値地図画像,139.39951434,35.67876714
13212,3,3003,日野市立百草図書館,百草204-1,3,数値地図画像,
13212,3,3003,日野市立百草台児童図書館,百草999,3,数値地図画像,139.41885541,35.65093478
13212,3,3003,日野市立平山図書館,平山5-18-2,3,数値地図画像,139.38036138,35.64717592
13213,3,3003,東村山市立廻田図書館,廻田町4-19-1,3,数値地図画像,139.45213175,35.75955645
13213,3,3003,東村山市立秋津図書館,秋津町2-17-10,3,数値地図画像,139.48661728,35.77112558
13213,3,3003,東村山市立中央図書館,本町1-1-10,3,数値地図画像,139.98573364,35.70136284
13213,3,3003,東村山市立萩山図書館,萩山町2-13-1,3,数値地図画像,139.47866899,35.74155931
13213,3,3003,東村山市立富士見図書館,富士見町1-7-35,3,数値地図画像,139.46128433,35.74402795
13214,3,3003,国分寺市立もとまち図書館,東元町2-3-13,3,数値地図画像,139.48334561,35.69222617
13214,3,3003,国分寺市立光図書館,光町3-13-19,3,数値地図画像,139.44319021,35.70781782
13214,3,3003,国分寺市立並木図書館,並木町2-12-3,3,数値地図画像,
13214,3,3003,国分寺市立本多図書館,本多1-7-1,3,数値地図画像,139.48237572,35.70535519
13214,3,3003,国分寺市立恋ケ窪図書館,西恋ヶ窪4-12-8,3,数値地図画像,139.46427167,35.70775448
13215,3,3003,くにたち中央図書館,富士見台2-34,3,数値地図画像,139.44378816,35.68558704
13215,3,3003,くにたち北市民プラザ図書館,北3-1-1（9-1F）,3,数値地図画像,139.73095900,35.58461988
13218,3,3003,福生市立わかぎり図書館,福生1280-1,3,数値地図画像,139.32083528,35.74619349
13218,3,3003,福生市立わかたけ図書館,熊川199-1,3,数値地図画像,139.33499907,35.71811120
13218,3,3003,福生市立中央図書館,熊川850-1,3,数値地図画像,139.33754568,35.73209287
13218,3,3003,福生市立武蔵野台図書館,武蔵野台1-12-2,3,数値地図画像,139.33394539,35.74680769
13219,3,3003,狛江市立中央図書館,和泉本町1-1-5,3,数値地図画像,139.57873418,35.63491314
13220,3,3003,東大和市立桜が丘図書館,桜が丘3-44-13,3,数値地図画像,139.42002717,35.73426689
13220,3,3003,東大和市立中央図書館,中央3-930,3,数値地図画像,139.42703715,35.74471306
13221,3,3003,清瀬市立駅前図書館,元町1-4-5（クレア4F）,3,数値地図画像,135.70458330,34.82488706
13221,3,3003,清瀬市立下宿図書館,下宿2-524-1,3,数値地図画像,139.53343242,35.79763995
13221,3,3003,清瀬市立元町図書館,元町1-6-6,3,数値地図画像,135.70462218,34.82461764
13221,3,3003,清瀬市立竹丘図書館,竹丘1-11-1,3,数値地図画像,139.51164856,35.76587683
13221,3,3003,清瀬市立中央図書館,梅園1-1-21,3,数値地図画像,139.51144289,35.77335369
13221,3,3003,清瀬市立野塩図書館,野塩1-322-2,3,数値地図画像,139.49942443,35.77918046
13222,3,3003,東久留米市立ひばりが丘図書館,ひばりが丘団地185,3,数値地図画像,139.53424441,35.74651844
13222,3,3003,東久留米市立滝山図書館,滝山4-1-10,3,数値地図画像,139.50443042,35.74486239
13222,3,3003,東久留米市立中央図書館,中央町2-6-23,3,数値地図画像,131.60582784,33.23745522
13222,3,3003,東久留米市立東部図書館,大門町2-10-5,3,数値地図画像,139.54073496,35.76486364
13223,3,3003,武蔵村山市立三ツ木地区図書館,三ツ木2-39-2,3,数値地図画像,139.36854204,35.75853776
13223,3,3003,武蔵村山市立残堀・伊奈平地区図書館,残堀1-60-3,3,数値地図画像,139.37515038,35.74625605
13223,3,3003,武蔵村山市立大南地区図書館,大南5-1-69,3,数値地図画像,139.40589235,35.73566364
13223,3,3003,武蔵村山市立中久保図書館,本町2-77-1,3,数値地図画像,139.38293265,35.75454141
13223,3,3003,武蔵村山市立中藤地区図書館,中藤3-16,3,数値地図画像,139.40059759,35.75694441
13223,3,3003,武蔵村山市立雷塚図書館,学園4-4,3,数値地図画像,140.07548881,36.08690151
13224,3,3003,多摩市立永山図書館,永山1-5,3,数値地図画像,139.44841482,35.62834655
13224,3,3003,多摩市立関戸図書館,関戸1-1-5,3,数値地図画像,139.44592250,35.65183536
13224,3,3003,多摩市立図書館,関戸6-12-1,3,数値地図画像,139.44688959,35.63775924
13224,3,3003,多摩市立聖ケ丘図書館,聖ヶ丘2-21-1,3,数値地図画像,139.45811386,35.63107428
13224,3,3003,多摩市立東寺方図書館,東寺方626-7,3,数値地図画像,139.43770131,35.64328337
13224,3,3003,多摩市立豊ケ丘図書館,豊ヶ丘5-6,3,数値地図画像,139.43431107,35.61432843
13225,3,3003,稲城市立図書館,東長沼2111,3,数値地図画像,139.50426905,35.63795935
13225,3,3003,稲城市立第三図書館,平尾1-20-5,3,数値地図画像,139.49255791,35.61312184
13225,3,3003,稲城市立第四図書館,東長沼271,3,数値地図画像,139.50522937,35.64593843
13225,3,3003,稲城市立第二図書館,矢野口1780,3,数値地図画像,139.51892135,35.63510800
13227,3,3003,羽村市図書館,緑ヶ丘2-11-2,3,数値地図画像,139.31662116,35.76436904
13228,3,3003,あきる野市五日市図書館,五日市368,3,数値地図画像,139.22226706,35.72984830
13228,3,3003,あきる野市五日市図書館増戸分室,伊奈1157-5,3,数値地図画像,139.24756439,35.72745755
13228,3,3003,あきる野市秋川図書館,平沢32,3,数値地図画像,139.19381154,35.37509879
13229,3,3003,西東京市ひばりが丘図書館,ひばりが丘1-2-1,3,数値地図画像,139.54371013,35.75195134
13229,3,3003,西東京市下保谷図書館,下保谷4-3-18,3,数値地図画像,
13229,3,3003,西東京市芝久保図書館,芝久保町5-4-48,3,数値地図画像,139.52806497,35.73266990
13229,3,3003,西東京市谷戸図書館,谷戸町1-17-2,3,数値地図画像,139.54369663,35.74151367
13229,3,3003,西東京市中央図書館,南町5-6-11,3,数値地図画像,139.59181639,35.70341635
13229,3,3003,西東京市柳沢図書館,柳沢1-15-1,3,数値地図画像,139.55396858,35.72833767
13303,3,3003,瑞穂町図書館,大字石畑1962,3,数値地図画像,139.35675626,35.77462156
13305,3,3003,日の出町立図書館,平井2780,3,数値地図画像,139.25740482,35.74211437
13307,3,3003,檜原村立図書館,425,3,数値地図画像,139.55737205,35.62103873
13308,3,3003,奥多摩町立古里図書館,小丹波82,3,数値地図画像,139.14986875,35.81531871
13308,3,3003,奥多摩町立氷川図書館,氷川199-ロ,3,数値地図画像,
13361,3,3003,大島町図書館,元町1-15-1,3,数値地図画像,139.54559404,35.66353648
13381,3,3003,三宅村立図書館,伊豆466-2,3,数値地図画像,138.93885692,34.99404198
13401,3,3003,八丈町立図書館,三根26-6,3,数値地図画像,139.79224735,33.11383944
13402,3,3003,青ケ島図書館,無番地,3,数値地図画像,141.30990719,38.50641065
13109,3,3004,しながわ水族館,勝島3-2-1,3,数値地図画像,139.73750005,35.58847521
13116,3,3004,サンシャイン国際水族館,東池袋3-1-3,4,数値地図画像,139.71977569,35.72859563
13123,3,3004,東京都葛西臨海水族園,臨海町6-2-3,2,数値地図画像,139.86216527,35.64009455
13421,3,3004,小笠原海洋センター,父島字屏風谷,3,数値地図画像,142.20502572,27.09143607
13103,3,3005,独立行政法人国立科学博物館附属自然教育園,白金台5-21-5,0,数値地図画像,139.72136631,35.63606069
13105,3,3005,東京大学大学院理学系研究科附属植物園,白山3-7-1,0,数値地図,139.74435006,35.71847994
13106,3,3005,東京都恩賜上野動物園,上野公園9-83,2,数値地図,139.77278988,35.71583121
13108,3,3005,東京都夢の島熱帯植物園,夢の島3-2,2,数値地図画像,139.83628072,35.65032592
13119,3,3005,板橋区立熱帯環境植物館,高島平8-29-2,3,数値地図画像,139.66401530,35.79192164
13121,3,3005,足立区生物園,保木間2-17-1,3,数値地図画像,139.80723610,35.79245385
13123,3,3005,江戸川区自然動物園,北葛西3-2-1,3,数値地図画像,139.85883655,35.67141007
13201,3,3005,独立行政法人森林総合研究所多摩森林科学園,廿里町1833-81,0,数値地図画像,139.27951185,35.64600426
13203,3,3005,東京都井の頭自然文化園,御殿山1-17-6,2,数値地図,139.57124320,35.70163550
13208,3,3005,東京都神代植物公園,深大寺元町5-31-10,2,数値地図画像,139.54590208,35.67232436
13211,3,3005,東京都薬用植物園,中島町21-1,2,数値地図画像,139.43520933,35.73277019
13212,3,3005,東京都多摩動物公園,程久保7-1-1,2,数値地図,139.40220120,35.64953724
13214,3,3005,国分寺万葉植物園,西元町1-13-16,4,数値地図画像,139.47106325,35.69435342
13227,3,3005,羽村市動物公園,羽4122,3,数値地図画像,139.32909507,35.76586090
13361,3,3005,東京都立大島公園,泉津字福重,2,数値地図,139.43446025,34.76113348
13101,9,9001,沖縄振興開発金融公庫東京本部,霞が関3-7-1（大東ビル）,0,数値地図画像,139.74471015,35.67144064
13101,9,9001,警察共済組合,三番町6-8,0,数値地図画像,132.75936709,33.83849852
13101,9,9001,公営企業金融公庫,日比谷公園1-3（市政会館）,0,数値地図画像,139.75551757,35.67139647
13101,9,9001,公立学校共済組合,神田駿河台2-9-5,0,数値地図画像,139.75950225,35.70071282
13101,9,9001,国家公務員共済組合連合会,九段南1-1-10（九段合同庁舎）,0,数値地図,139.75526400,35.69336907
13101,9,9001,国際協力銀行本店,大手町1-4-1,0,数値地図画像,139.76054705,35.69051119
13101,9,9001,国民生活金融公庫,大手町1-9-3（公庫ビル）,0,数値地図画像,139.76478576,35.68809490
13101,9,9001,国民生活金融公庫大手町支店,大手町1-9-3（公庫ビル）,0,数値地図画像,139.76478576,35.68809490
13101,9,9001,阪神高速道路株式会社東京事務所,有楽町1-7-1（有楽町電気ビル北館）,0,数値地図画像,139.76147806,35.67450740
13101,9,9001,首都高速道路株式会社,霞が関1-4-1（日土地ビル）,0,数値地図画像,139.75037080,35.67091306
13101,9,9001,商工組合中央金庫神田支店,神田鍛冶町3-3-12,0,数値地図画像,139.77040751,35.69403609
13101,9,9001,西日本旅客鉄道株式会社東京指令所,丸の内1-1-9（ニューCTCビル）,0,数値地図画像,138.56823428,35.66693702
13101,9,9001,地方公務員災害補償基金,霞が関3-2-5（霞が関ビル）,0,数値地図,139.74719883,35.67118239
13101,9,9001,中小企業金融公庫,大手町1-9-3（公庫ビル）,0,数値地図画像,139.76478576,35.68809490
13101,9,9001,日本貨物鉄道株式会社,飯田橋3-13-1,0,数値地図画像,139.74970297,35.70181800
13101,9,9001,日本貨物鉄道株式会社関東支社,飯田橋3-13-1,0,数値地図画像,139.74970297,35.70181800
13101,9,9001,日本私立学校振興・共済事業団,富士見1-10-12,0,数値地図画像,140.11766127,35.61231371
13101,9,9001,日本自転車振興会,六番町4-6,0,数値地図画像,139.73429649,35.68868849
13101,9,9001,日本小型船舶検査機構,九段北4-1-3（飛栄九段北ビル）,0,数値地図画像,139.74046246,35.69268265
13101,9,9001,日本政策投資銀行,大手町1-9-1,0,数値地図画像,139.76503575,35.68773106
13101,9,9001,日本電信電話株式会社,大手町2-3-1,0,数値地図,139.76714953,35.68675623
13101,9,9001,日本郵政公社,霞が関1-3-2,0,数値地図,139.75043187,35.67166298
13101,9,9001,日本郵政公社健康管理事務センター,富士見2-14-23,0,数値地図画像,139.74307315,35.69761274
13101,9,9001,日本郵政公社健康管理室東京中央郵便局健康管理室,丸の内2-7-2,0,数値地図画像,139.76475651,35.67971664
13101,9,9001,日本郵政公社健康管理室本社健康管理室,霞が関1-3-2,0,数値地図,139.75043187,35.67166298
13101,9,9001,日本郵政公社国際郵便決済センター,霞が関1-3-2,0,数値地図,139.75043187,35.67166298
13101,9,9001,日本郵政公社逓信病院東京逓信病院,富士見2-14-23,0,数値地図画像,139.74307315,35.69761274
13101,9,9001,日本郵政公社法人営業推進本部東日本法人営業推進本部,霞が関1-3-2,0,数値地図,139.75043187,35.67166298
13101,9,9001,日本郵政公社郵政健康管理センター首都圏郵政健康管理センター,富士見2-14-23,0,数値地図画像,139.74307315,35.69761274
13101,9,9001,日本郵政公社郵便輸送センター東日本郵便輸送センター,霞が関1-3-2,0,数値地図,139.75043187,35.67166298
13101,9,9001,農水産業協同組合貯金保険機構,丸の内3-3-1（新東京ビル）,0,数値地図画像,139.76293061,35.67743767
13101,9,9001,農林漁業金融公庫,大手町1-9-3（公庫ビル）,0,数値地図画像,139.76478576,35.68809490
13101,9,9001,農林漁業金融公庫東京支店,大手町1-8-2（新公庫ビル）,0,数値地図画像,139.05987803,36.38784795
13101,9,9001,預金保険機構,有楽町1-12-1（新有楽町ビルヂング）,0,数値地図画像,139.76191687,35.67560729
13102,9,9001,国民生活金融公庫東京支店,新川1-17-28,0,数値地図画像,139.78303998,35.67867419
13102,9,9001,商工組合中央金庫,八重洲2-10-17,0,数値地図画像,139.76684422,35.67605459
13102,9,9001,商工組合中央金庫営業部,八重洲2-10-17,0,数値地図画像,139.76684422,35.67605459
13102,9,9001,日本銀行,日本橋本石町2-1-1,0,数値地図画像,139.77134092,35.68687577
13103,9,9001,企業年金連合会,芝公園2-4-1（秀和芝パークビルB館）,0,数値地図画像,139.75222119,35.65600085
13103,9,9001,危険物保安技術協会,虎ノ門4-3-13（秀和神谷町ビル）,0,数値地図画像,139.74418550,35.66375258
13103,9,9001,軽自動車検査協会東京主管事務所,港南3-3-7,0,数値地図画像,139.74945839,35.63408390
13103,9,9001,高圧ガス保安協会,虎ノ門4-3-9（住友新虎ノ門ビル）,0,数値地図画像,139.74387161,35.66442472
13103,9,9001,高圧ガス保安協会ISO審査センター,麻布台1-11-9（プライム神谷町ビル）,0,数値地図画像,139.74362177,35.66074178
13103,9,9001,社会保険診療報酬支払基金,新橋2-1-3,0,数値地図画像,139.75541215,35.66806628
13103,9,9001,商工組合中央金庫東京支店,芝大門2-12-18,0,数値地図画像,139.75399331,35.65451772
13103,9,9001,消防団員等公務災害補償等共済基金,虎ノ門2-9-16,0,数値地図画像,139.74649346,35.66810771
13103,9,9001,地方競馬全国協会,麻布台2-2-1,0,数値地図画像,139.74208866,35.65816702
13103,9,9001,地方公務員共済組合連合会,赤坂8-5-26（赤坂DCビル）,0,数値地図画像,139.72677008,35.67099582
13103,9,9001,日本たばこ産業株式会社,虎ノ門2-2-1,0,数値地図,139.74569625,35.66942977
13103,9,9001,日本下水道事業団,赤坂6-1-20（国際新赤坂ビル西館）,0,数値地図画像,139.73636087,35.67167096
13103,9,9001,日本消防検定協会虎ノ門事務所,虎ノ門2-9-16（日本消防会館）,0,数値地図画像,139.74649346,35.66810771
13103,9,9001,日本中央競馬会,西新橋1-1-19,0,数値地図画像,139.75288727,35.67032430
13103,9,9001,日本電気計器検定所,芝浦4-15-7,0,数値地図画像,139.74842496,35.63863887
13103,9,9001,日本郵政公社簡易保険事務センター東京簡易保険事務センター,三田1-4-60,0,数値地図,139.74192222,35.65213712
13103,9,9001,日本郵政公社健康管理室東京支社健康管理室,麻布台1-6-19,0,数値地図,139.74018319,35.66045006
13103,9,9001,日本郵政公社災害補償事務センター,麻布台1-6-19,0,数値地図,139.74018319,35.66045006
13103,9,9001,日本郵政公社東京支社,麻布台1-6-19,0,数値地図,139.74018319,35.66045006
13103,9,9001,農林漁業団体職員共済組合,虎ノ門4-1-1（虎ノ門パストラル）,0,数値地図画像,139.74536867,35.66516634
13104,9,9001,軽自動車検査協会,西新宿3-2-11（新宿三井ビル二号館）,0,数値地図画像,139.69312802,35.68635442
13104,9,9001,国民生活金融公庫新宿支店,西新宿1-14-9,0,数値地図画像,139.69672206,35.68853760
13104,9,9001,商工組合中央金庫新宿支店,西新宿1-22-2,0,数値地図画像,139.69598600,35.68876811
13104,9,9001,地方公務員災害補償基金東京都支部,西新宿2-8-1,0,数値地図画像,139.69164748,35.68918461
13104,9,9001,中小企業金融公庫新宿支店,西新宿1-7-2（スバルビル）,0,数値地図画像,139.69734688,35.69160948
13104,9,9001,東日本電信電話株式会社,西新宿3-19-2,0,数値地図画像,139.68792025,35.68342406
13105,9,9001,住宅金融公庫,後楽1-4-10,0,数値地図画像,139.75057505,35.70347062
13105,9,9001,住宅金融公庫首都圏支店,関口1-23-6（プラザ江戸川橋ビル）,0,数値地図画像,139.73032102,35.71029714
13105,9,9001,日本下水道事業団関東・北陸総合事務所,湯島2-31-27（湯島台ビル）,0,数値地図画像,139.76674326,35.70730680
13105,9,9001,日本下水道事業団技術開発研修本部東日本設計センター,湯島2-31-27（湯島台ビル）,0,数値地図画像,139.76674326,35.70730680
13105,9,9001,日本勤労者住宅協会,本郷3-23-1,0,数値地図画像,139.76432124,35.70557078
13105,9,9001,日本私立学校振興・共済事業団共済事業本,湯島1-7-5,0,数値地図画像,139.76477135,35.70281554
13105,9,9001,日本私立学校振興・共済事業団湯島会館,湯島1-7-5,0,数値地図画像,139.76477135,35.70281554
13105,9,9001,放送大学学園放送大学東京文京学習センター,大塚3-29-1（筑波大学東京キャンパス）,0,数値地図,139.73724511,35.71964352
13106,9,9001,国民生活金融公庫上野支店,東上野2-18-10（日本生命上野ビル）,0,数値地図画像,139.77704538,35.71076510
13106,9,9001,商工組合中央金庫上野支店,上野1-10-12,0,数値地図画像,139.77166254,35.70594878
13106,9,9001,東京地下鉄株式会社,東上野3-19-6,0,数値地図画像,139.77789251,35.71152894
13106,9,9001,日本郵政公社ネットワークセンター首都圏ネットワークセンター,西浅草1-1-1,0,数値地図画像,139.79085284,35.71019320
13106,9,9001,日本郵政公社監査室東京監査室,蔵前1-3-25,0,数値地図,139.79033708,35.70136356
13107,9,9001,国民生活金融公庫江東支店,江東橋3-7-8（日本生命錦糸町ビル）,0,数値地図画像,139.81481860,35.69436158
13107,9,9001,商工組合中央金庫押上支店,業平3-10-8,0,数値地図画像,139.81362287,35.70785212
13108,9,9001,商工組合中央金庫新木場支店,新木場1-18-6,0,数値地図画像,139.82574573,35.64389863
13108,9,9001,商工組合中央金庫深川支店,木場5-11-17,0,数値地図画像,139.80823544,35.66964527
13108,9,9001,日本小型自動車振興会,有明3-1（TFTビル西館）,0,数値地図,139.78484975,35.63068792
13108,9,9001,日本小型船舶検査機構東京支部,新木場1-2-15,0,数値地図画像,139.82372083,35.64489844
13108,9,9001,日本郵政公社健康管理室新東京郵便局健康管理室,新砂2-4-23,0,数値地図画像,139.82429248,35.66082719
13109,9,9001,国民生活金融公庫五反田支店,西五反田1-31-1（日本生命五反田ビル）,0,数値地図画像,139.72195549,35.62444259
13109,9,9001,中小企業金融公庫大森支店,南大井6-22-7（大森ベルポートE館）,0,数値地図画像,139.73215037,35.58927211
13109,9,9001,日本郵政公社加入者福祉施設東京簡易保険会館,西五反田8-4-13,0,数値地図画像,139.72211664,35.62292610
13109,9,9001,日本郵政公社加入者福祉施設統括センター南関東加入者福祉施設統括センター,西五反田8-4-13（東京簡易保険会館）,0,数値地図画像,139.72211664,35.62292610
13111,9,9001,国民生活金融公庫大森支店,大森北1-15-17,0,数値地図画像,139.72944237,35.58603910
13111,9,9001,商工組合中央金庫京浜島出張所,京浜島2-10-2,0,数値地図画像,139.76358280,35.57027343
13111,9,9001,商工組合中央金庫大森支店,大森北1-1-10,0,数値地図画像,139.72929781,35.58893872
13112,9,9001,日本中央競馬会馬事公苑,上用賀2-1-1,0,数値地図画像,139.63501527,35.63566163
13112,9,9001,放送大学学園放送大学東京世田谷学習センター,下馬4-1-1,0,数値地図画像,139.67810895,35.63370727
13113,9,9001,国民生活金融公庫渋谷支店,神南1-21-1（日本生命ビル）,0,数値地図,139.70054499,35.66197404
13113,9,9001,商工組合中央金庫渋谷支店,渋谷2-17-5,0,数値地図画像,139.70442532,35.65911611
13113,9,9001,総合研究開発機構,恵比寿4-20-3（恵比寿ガーデンプレイスタワー）,0,数値地図画像,139.71345296,35.64236262
13113,9,9001,東京中小企業投資育成株式会社,渋谷3-29-22,0,数値地図画像,139.70441715,35.65517210
13116,9,9001,国民生活金融公庫池袋支店,南池袋2-27-9（池袋室町ビル）,0,数値地図画像,139.71419950,35.72868353
13116,9,9001,商工組合中央金庫池袋支店,南池袋1-21-10,0,数値地図画像,139.71251354,35.72845296
13116,9,9001,中小企業金融公庫池袋支店,西池袋3-27-12（池袋ウエストパークビル）,0,数値地図画像,139.70751386,35.73087200
13116,9,9001,日本郵政公社加入者福祉施設東京簡易保険総合健診センター,東池袋4-7-7,0,数値地図画像,139.71747703,35.72789760
13119,9,9001,国民生活金融公庫板橋支店,氷川町39-2（板橋法人会館）,0,数値地図画像,139.70646584,35.75189183
13121,9,9001,国民生活金融公庫千住支店,千住中町41-1（三井生命北千住ビル）,0,数値地図画像,
13121,9,9001,中小企業金融公庫千住支店,千住3-98（千住ミルディス2番館）,0,数値地図画像,139.80500501,35.75194203
13121,9,9001,放送大学学園放送大学東京足立学習センター,千住5-13-5（学びピア21）,0,数値地図画像,139.80267428,35.75654132
13123,9,9001,日本私立学校振興・共済事業団東京臨海病院,臨海町1-4-2,0,数値地図画像,139.85363487,35.65210677
13201,9,9001,国民生活金融公庫八王子支店,東町7-3,0,数値地図画像,140.90558190,37.05303811
13201,9,9001,商工組合中央金庫八王子支店,横山町2-5,0,数値地図画像,139.33973948,35.65932368
13202,9,9001,国民生活金融公庫立川支店,錦町1-9-15,0,数値地図画像,139.41987874,35.69472140
13202,9,9001,中小企業金融公庫多摩支店,曙町2-38-5（立川ビジネスセンタービル）,0,数値地図画像,139.41399562,35.70119551
13202,9,9001,日本郵政公社監査室東京監査室多摩分室,曙町2-14-36,0,数値地図,139.41544004,35.69901524
13204,9,9001,国民生活金融公庫三鷹支店,下連雀3-26-9（サンシロービル）,0,数値地図画像,139.56115802,35.70180752
13205,9,9001,日本郵政公社加入者福祉施設青梅簡易保険保養センター,駒木町3-668-2,0,数値地図画像,139.25559283,35.78393728
13206,9,9001,日本中央競馬会東京競馬場,日吉町1-1,0,数値地図画像,139.46066950,35.69979421
13208,9,9001,日本消防検定協会,深大寺東町4-35-16,0,数値地図画像,139.56289775,35.67278021
13209,9,9001,高圧ガス保安協会液化石油ガス機器検定室,忠生2-16-4,0,数値地図画像,139.42317436,35.57641599
13209,9,9001,高圧ガス保安協会液化石油ガス研究所,忠生2-16-4,0,数値地図画像,139.42317436,35.57641599
13209,9,9001,高圧ガス保安協会高圧ガス保安研究室,忠生2-16-4,0,数値地図画像,139.42317436,35.57641599
13211,9,9001,放送大学学園放送大学東京多摩学習センター,学園西町1-29-1（一橋大学小平国際キャンパス）,0,数値地図画像,139.47481194,35.71948672
13215,9,9001,日本郵政公社健康管理室中央郵政研修所健康管理室,西2-18-4,0,数値地図,136.97727462,35.26896320
13215,9,9001,日本郵政公社職員訓練所中央郵政研修所,西2-18-4,0,数値地図,136.97727462,35.26896320
13215,9,9001,日本郵政公社職員訓練所郵政大学校,西2-18-4,0,数値地図,136.97727462,35.26896320
13101,9,9002,医薬品医療機器総合機構,霞が関3-3-2（新霞が関ビル）,0,数値地図画像,139.74622389,35.67186007
13101,9,9002,宇宙航空研究開発機構東京事務所,丸の内1-6-5,0,数値地図画像,139.76687738,35.68396207
13101,9,9002,科学技術振興機構(東京本部),四番町5-3（サイエンスプラザ）,0,数値地図画像,139.73803782,35.68888023
13101,9,9002,経済産業研究所,霞が関1-3-1,0,数値地図,139.75180121,35.67137416
13101,9,9002,航海訓練所連絡調整室,霞が関2-1-3,0,数値地図,139.75009840,35.67603471
13101,9,9002,国際観光振興機構,有楽町2-10-1（東京交通会館）,0,数値地図,139.76436669,35.67498798
13101,9,9002,国立印刷局国会分工場,永田町1-6,0,数値地図,139.74507672,35.67313491
13101,9,9002,国立公文書館,北の丸公園3-2,0,数値地図,139.75387256,35.69022493
13101,9,9002,国立大学財務・経営センター東京連絡所,一ツ橋2-1-2,0,数値地図画像,139.75801660,35.69243591
13101,9,9002,産業技術総合研究所,霞が関1-3-1,0,数値地図,139.75180121,35.67137416
13101,9,9002,自動車事故対策機構,麹町6-1-25（上智麹町ビル）,0,数値地図画像,139.73306342,35.68469446
13101,9,9002,大学共同利用機関法人情報・システム研究機構国立情報学研究所,一ツ橋2-1-2,0,数値地図画像,139.75801660,35.69243591
13101,9,9002,日本学術振興会,麹町5-3-1（ヤマトビル）,0,数値地図画像,139.73408280,35.68403066
13101,9,9002,日本芸術文化振興会,隼町4-1,0,数値地図画像,139.74337932,35.68154505
13101,9,9002,日本原子力研究開発機構東京事務所,内幸町2-1-8,0,数値地図画像,139.75321224,35.67056039
13101,9,9002,日本貿易保険,西神田3-8-1（千代田ファーストビル東館）,0,数値地図,139.75362503,35.69848236
13101,9,9002,年金積立金管理運用独立行政法人,霞が関1-4-1（日土地ビル2）,0,数値地図画像,139.75037080,35.67091306
13101,9,9002,農林漁業信用基金,内神田1-1-12（コープビル）,0,数値地図画像,139.76580788,35.68939757
13101,9,9002,北方領土問題対策協会,紀尾井町7-1（上智紀尾井坂ビル）,0,数値地図画像,139.73259961,35.68381677
13101,9,9002,労働者健康福祉機構東京産業保健推進センター,内幸町2-2-3（日比谷国際ビル）,0,数値地図画像,139.75435104,35.67036600
13102,9,9002,宇宙航空研究開発機構地球観測利用推進センター,晴海1-8-10（晴海アイランドトリトンスクエア・オフィスタワーX棟）,0,数値地図画像,139.78233528,35.65638496
13102,9,9002,国立科学博物館産業技術史資料情報センター,日本橋室町2-1-1（三井本館）,0,数値地図画像,139.77292143,35.68639254
13102,9,9002,都市再生機構東京都心支社勝どき駅前再開発事務所,明石町8-1（聖路加タワー）,0,数値地図画像,139.77867136,35.66703646
13102,9,9002,農畜産業振興機構東京事務所,日本橋人形町3-1-17（石井ビル）,0,数値地図画像,139.78004624,35.68550119
13103,9,9002,海洋研究開発機構東京事務所,西新橋1-2-9（日比谷セントラルビル）,0,数値地図画像,139.75450105,35.66970774
13103,9,9002,教員研修センター(東京事務所),虎ノ門2-3-20（虎ノ門YHKビル）,0,数値地図画像,139.74680174,35.66871321
13103,9,9002,勤労者退職金共済機構,芝公園1-7-6,0,数値地図画像,139.75242389,35.65795620
13103,9,9002,原子力安全基盤機構,虎ノ門3-17-1（藤田観光虎ノ門ビル）,0,数値地図画像,139.74654083,35.66409704
13103,9,9002,原子力安全基盤機構解析評価部,虎ノ門4-3-20（神谷町MTビル）,0,数値地図画像,139.74463547,35.66350817
13103,9,9002,高齢・障害者雇用支援機構,海岸1-11-1,0,数値地図画像,139.76372301,35.65577062
13103,9,9002,高齢・障害者雇用支援機構東京駐在所,海岸1-11-1（ニューピア竹芝ノースタワー）,0,数値地図画像,139.76372301,35.65577062
13103,9,9002,国際交流基金,赤坂1-12-32（アーク森ビル）,0,数値地図画像,139.74001073,35.66709378
13103,9,9002,国立印刷局,虎ノ門2-2-4,0,数値地図,139.74445473,35.66861039
13103,9,9002,国立印刷局虎の門工場,虎ノ門2-2-4,0,数値地図,139.74445473,35.66861039
13103,9,9002,国立新美術館,六本木7-22-2,0,数値地図画像,139.72629258,35.66509367
13103,9,9002,大学共同利用機関法人情報・システム研究機構,虎ノ門4-3-13（秀和神谷町ビル）,0,数値地図画像,139.74418550,35.66375258
13103,9,9002,大学共同利用機関法人情報・システム研究機構統計数理研究所,南麻布4-6-7,0,数値地図,139.72740968,35.65103689
13103,9,9002,中小企業基盤整備機構,虎ノ門3-5-1（虎ノ門37森ビル）,0,数値地図画像,139.74615744,35.66656065
13103,9,9002,中小企業基盤整備機構関東支部,虎ノ門3-5-1（虎ノ門37森ビル）,0,数値地図画像,139.74615744,35.66656065
13103,9,9002,駐留軍等労働者労務管理機構,愛宕2-5-1（愛宕グリーンヒルズMORIタワー）,0,数値地図画像,139.74891293,35.66213899
13103,9,9002,通関情報処理センター品川本部,港南2-12-27（イケダヤ品川ビル）,0,数値地図画像,139.74524795,35.62548200
13103,9,9002,鉄道建設・運輸施設整備支援機構国鉄清算事業本部,西新橋2-8-6（住友不動産日比谷ビル）,0,数値地図画像,139.75344572,35.66624421
13103,9,9002,鉄道建設・運輸施設整備支援機構鉄道建設本部東京支社,芝公園2-11-1（住友不動産芝公園タワー）,0,数値地図画像,139.75152687,35.65422047
13103,9,9002,都市再生機構東日本支社赤坂住宅管理センター,赤坂8-10-21,0,数値地図画像,
13103,9,9002,日本高速道路保有・債務返済機構,西新橋2-8-6（住友不動産日比谷ビル）,0,数値地図画像,139.75344572,35.66624421
13103,9,9002,日本貿易振興機構,赤坂1-2-32,0,数値地図画像,130.90586291,33.88942858
13103,9,9002,日本貿易振興機構東京貿易情報センター,赤坂1-12-32,0,数値地図画像,139.74001073,35.66709378
13103,9,9002,農業・食品産業技術総合研究機構生物系特定産業技術研究支援センター東京事務所,虎ノ門3-18-9（虎ノ門マリンビル）,0,数値地図画像,
13103,9,9002,農業者年金基金,西新橋1-6-21,0,数値地図画像,139.75205680,35.66990488
13103,9,9002,農畜産業振興機構,麻布台2-2-1（麻布台ビル）,0,数値地図画像,139.74208866,35.65816702
13103,9,9002,福祉医療機構,虎ノ門4-3-13（秀和神谷町ビル）,0,数値地図画像,139.74418550,35.66375258
13103,9,9002,緑資源機構関東整備局,赤坂4-9-17（赤坂第一ビル）,0,数値地図画像,139.73258330,35.67475387
13104,9,9002,国際協力機構国際協力総合研修所,市谷本村町10-5,0,数値地図画像,139.73124653,35.69449334
13104,9,9002,国立印刷局市ヶ谷センター,市谷本村町9-5,0,数値地図,
13104,9,9002,国立科学博物館分館,百人町3-23-1,0,数値地図画像,139.69795183,35.70557458
13104,9,9002,国立健康・栄養研究所,戸山1-23-1,0,数値地図,139.71735572,35.70429747
13104,9,9002,自動車検査独立行政法人,本塩町8-2（住友生命四谷ビル）,0,数値地図画像,139.72924412,35.68962160
13104,9,9002,都市再生機構東京都心支社,西新宿6-5-1（新宿アイランドタワー）,0,数値地図画像,139.69307220,35.69310642
13104,9,9002,都市再生機構東日本支社,西新宿6-5-1（新宿アイランドタワー）,0,数値地図画像,139.69307220,35.69310642
13104,9,9002,都市再生機構東日本支社東日本公園事務所,西新宿6-5-1（新宿アイランドタワー）,0,数値地図画像,139.69307220,35.69310642
13104,9,9002,都市再生機構募集販売本部,西新宿6-5-1（新宿アイランドタワー）,0,数値地図画像,139.69307220,35.69310642
13104,9,9002,統計センター,若松町19-1,0,数値地図,139.71469776,35.70087278
13104,9,9002,日本スポーツ振興センター国立霞ケ丘競技場,霞ケ丘町10-2,0,数値地図画像,139.71554862,35.67683938
13104,9,9002,日本スポーツ振興センター東京支店,霞ケ丘町10-1,0,数値地図画像,139.71529855,35.67921688
13104,9,9002,日本スポーツ振興センター本部事務所,霞ケ丘町10-1,0,数値地図画像,139.71529855,35.67921688
13104,9,9002,平和祈念事業特別募金,西新宿2-6-1（新宿住友ビル）,0,数値地図画像,139.69259453,35.69142049
13105,9,9002,雇用・能力開発機構東京センター,後楽1-9-20（飯田橋合同庁舎）,0,数値地図,139.74719198,35.70362607
13105,9,9002,情報処理推進機構,本駒込2-28-8（文京グリーンコートセンターオフィス）,0,数値地図画像,139.74753553,35.72982875
13105,9,9002,理化学研究所駒込分所,本駒込2-28-8,0,数値地図画像,139.74753553,35.72982875
13106,9,9002,日本原子力研究開発機構システム計算科学センター,東上野6-9-3,0,数値地図画像,139.78325326,35.71261508
13106,9,9002,文化財研究所東京文化財研究所,上野公園13-43,0,数値地図,139.77558120,35.72071975
13107,9,9002,雇用・能力開発機構生涯職業能力開発促進センター,江東橋2-19-14,0,数値地図画像,139.81055516,35.69621414
13107,9,9002,自動車事故対策機構東京主管支所,錦糸1-2-1（アルカセントラルビル）,0,数値地図画像,139.81146881,35.69739732
13107,9,9002,都市再生機構東京都心支社曳船駅前再開発事務所,東向島2-16-14（ナンカイ3ビル）,0,数値地図画像,139.81619493,35.71828291
13109,9,9002,自動車検査独立行政法人関東検査部,東大井1-12-17,0,数値地図,139.74704309,35.60476240
13109,9,9002,大学共同利用機関法人人間文化研究機構国文学研究資料館,豊町1-16-10,0,数値地図,139.73817434,35.97224595
13110,9,9002,国立病院機構,東が丘2-5-21,0,数値地図画像,139.66494357,35.62688272
13110,9,9002,国立病院機構関東信越ブロック事務所,東が丘2-5-21,0,数値地図画像,139.66494357,35.62688272
13110,9,9002,大学入試センター,駒場2-19-23,0,数値地図,139.68034966,35.65751294
13111,9,9002,労働者健康福祉機構東京労災病院勤労者予防医療センター,大森南4-13-21,0,数値地図画像,139.74717861,35.56557052
13112,9,9002,都市再生機構東京都心支社芦花公園駅南口市街地整備事務所,南烏山5-18-12（南烏山粕屋ビル）,0,数値地図画像,139.60125028,35.66646526
13113,9,9002,国際協力機構,代々木2-1-1（新宿マインズタワー）,0,数値地図画像,139.69832198,35.68688782
13113,9,9002,国際協力機構広尾センター,広尾4-2-24,0,数値地図画像,139.72127126,35.65357257
13113,9,9002,国際協力機構青年海外協力隊事務局,代々木2-1-1（新宿マインズタワー）,0,数値地図画像,139.69832198,35.68688782
13113,9,9002,国際協力機構東京国際センター,西原2-49-5,0,数値地図,139.67452462,35.67280829
13113,9,9002,国立青少年教育振興機構,代々木神園町3-1,0,数値地図,139.69382284,35.67505295
13113,9,9002,国立青少年教育振興機構国立オリンピック記念青少年総合センター,代々木神園町3-1,0,数値地図,139.69382284,35.67505295
13113,9,9002,製品評価技術基盤機構,西原2-49-10,0,数値地図,139.67599949,35.67275833
13113,9,9002,日本スポーツ振興センター国立代々木競技場,神南2-1-1,0,数値地図画像,139.69977263,35.66692624
13113,9,9002,日本芸術文化振興会国立能楽堂,千駄ケ谷4-18-1,0,数値地図画像,139.70821025,35.68028049
13115,9,9002,日本スポーツ振興センター衛生管理室,阿佐谷北3-29-12,0,数値地図画像,139.63155732,35.71109153
13116,9,9002,高齢・障害者雇用支援機構東京障害者職業センター,東池袋3-1-1（サンシャイン60）,0,数値地図画像,139.71811302,35.72939189
13116,9,9002,造幣局東京支局,東池袋4-42-1,0,数値地図,139.72213501,35.72672285
13116,9,9002,都市再生機構東京都心支社東池袋再開発事務所,南池袋2-30-17（朝日生命南池袋ビル）,0,数値地図画像,139.71595775,35.72691156
13117,9,9002,国立印刷局王子工場,王子1-6-1,0,数値地図,139.73931854,35.75433678
13117,9,9002,国立印刷局滝野川工場,西ケ原2-3-15,0,数値地図,139.74219077,35.74815417
13117,9,9002,都市再生機構東京都心支社赤羽台整備事務所,赤羽台2-4-24-123,0,数値地図画像,
13117,9,9002,日本スポーツ振興センター国立スポーツ科学センター,西が丘3-15-1,0,数値地図画像,139.70877053,35.76787329
13119,9,9002,大学共同利用機関法人情報・システム研究機構国立極地研究所,加賀1-9-10,0,数値地図,139.71718431,35.75365300
13119,9,9002,理化学研究所板橋分所,加賀1-7-13,0,数値地図画像,139.71956467,35.75369472
13120,9,9002,科学技術振興機構情報資料館,旭町2-8-18,0,数値地図画像,139.62564146,35.76949320
13120,9,9002,自動車検査独立行政法人関東検査部練馬事務所,北町2-8-6,0,数値地図,139.65768889,35.76603041
13120,9,9002,労働政策研究・研修機構,上石神井4-8-23,0,数値地図画像,139.58936276,35.73078543
13121,9,9002,自動車検査独立行政法人関東検査部足立事務所,南花畑5-15-1,0,数値地図画像,139.81120790,35.79565355
13201,9,9002,国立高等専門学校機構,東浅川町701-2,0,数値地図画像,139.29507184,35.64006369
13201,9,9002,自動車検査独立行政法人関東検査部八王子事務所,滝山町1-270-2,0,数値地図,139.34708227,35.69091467
13201,9,9002,自動車検査独立行政法人中央実習センター,滝山町1-222-3,0,数値地図画像,139.34583512,35.69168400
13201,9,9002,森林総合研究所多摩森林科学園,廿里町1833-81,0,数値地図,139.27951185,35.64600426
13201,9,9002,都市再生機構都市住宅技術研究所,石川町2683-3,0,数値地図画像,139.36485350,35.67451971
13201,9,9002,都市再生機構東日本支社南八王子開発事務所,みなみ野1-3-1,0,数値地図画像,139.33051485,35.63224900
13202,9,9002,高齢・障害者雇用支援機構東京障害者職業センター多摩支所,曙町2-38-5（立川ビジネスセンタービル）,0,数値地図画像,139.41399562,35.70119551
13202,9,9002,国立国語研究所,緑町3591-2,0,数値地図画像,
13202,9,9002,都市再生機構東日本支社北多摩住宅管理センター,曙町2-34-7（ファーレイーストビル）,0,数値地図画像,139.41476497,35.70212598
13202,9,9002,都市再生機構東日本支社立川都市整備事務所,緑町3173-1,0,数値地図,
13204,9,9002,海上技術安全研究所,新川6-38-1,0,数値地図,139.56390300,35.67920450
13204,9,9002,大学共同利用機関法人自然科学研究機構国立天文台,大沢2-21-1,0,数値地図,139.53752504,35.67551001
13207,9,9002,駐留軍等労働者労務管理機構横田支部,田中町568-1（昭島昭和第2ビル）,0,数値地図画像,
13208,9,9002,宇宙航空研究開発機構,深大寺東町7-44-1,0,数値地図,139.55820345,35.68085142
13208,9,9002,宇宙航空研究開発機構航空宇宙技術研究センター,深大寺東町7-44-1,0,数値地図,139.55820345,35.68085142
13208,9,9002,交通安全環境研究所,深大寺東町7-42-27,0,数値地図画像,139.55937279,35.68077923
13208,9,9002,電子航法研究所,深大寺東町7-42-23,0,数値地図画像,139.56133933,35.67951552
13210,9,9002,情報通信研究機構(小金井本部),貫井北町4-2-1,0,数値地図,139.48786403,35.70816057
13210,9,9002,都市再生機構東日本支社武蔵小金井駅南口再開発事務所,本町6-5-16,0,数値地図画像,139.98750281,35.70485965
13211,9,9002,大学評価・学位授与機構,学園西町1-29-1,0,数値地図画像,139.47481194,35.71948672
13211,9,9002,農業・食品産業技術総合研究機構動物衛生研究所海外病研究施設,上水本町6-20-1,0,数値地図画像,139.47527883,35.71276806
13211,9,9002,農薬検査所,鈴木町2-772,0,数値地図,139.50726456,35.72158181
13214,9,9002,都市再生機構東日本支社西国分寺駅東再開発事務所,西恋ケ窪2-2-5（JRT3ビル）,0,数値地図画像,139.46622455,35.70046371
13215,9,9002,自動車検査独立行政法人関東検査部多摩事務所,北3-30-3,0,数値地図,139.73175630,35.58185080
13220,9,9002,中小企業基盤整備機構中小企業大学校東京校,桜ヶ丘2-137-5,0,数値地図画像,139.42769321,35.73399765
13221,9,9002,労働安全衛生総合研究所産業安全研究所,梅園1-4-6,0,数値地図,139.50563790,35.77055111
13224,9,9002,都市再生機構東日本支社南多摩住宅管理センター,永山2-3,0,数値地図画像,139.44874823,35.62596355
13224,9,9002,農業・食品産業技術総合研究機構農業者大学校本校,連光寺3-23-1,0,数値地図,
13101,11,11100,国立国会図書館,永田町1-10-1,1,数値地図,139.74423492,35.67842319
13101,11,11100,裁判官訴追委員会,永田町2-1-2（衆議院第二議員会館）,1,数値地図,139.74279627,35.67558458
13101,11,11100,裁判官弾劾裁判所,永田町1-11-16（参議院第二別館）,1,数値地図,139.74240731,35.67813429
13101,11,11100,参議院,永田町1-7-1,1,数値地図,139.74486552,35.67589293
13101,11,11100,参議院第二別館,永田町1-11-16,1,数値地図,139.74240731,35.67813429
13101,11,11100,衆議院,永田町1-7-1,1,数値地図,139.74486552,35.67589293
13101,11,11101,会計検査院,神田神保町1-105（神保町三井ビルディング）,1,数値地図画像,139.76025805,35.69421634
13101,11,11102,人事院,霞が関1-2-3,1,数値地図画像,139.75266221,35.67257960
13101,11,11103,内閣法制局,霞が関3-1-1,1,数値地図,139.74826533,35.67320442
13101,11,11110,官民競争入札等監理委員会,永田町1-11-39,1,数値地図,139.74261004,35.67900364
13101,11,11110,経済財政諮問会議,霞が関3-1-1（中央合同庁舎第四号館）,1,数値地図,139.74826533,35.67320442
13101,11,11110,経済社会総合研究所,霞が関3-1-1（中央合同庁舎第四号館）,1,数値地図,139.74826533,35.67320442
13101,11,11110,原子力安全委員会,霞が関3-1-2（中央合同庁舎第四号館）,1,数値地図,
13101,11,11110,原子力委員会,霞が関3-1-1（中央合同庁舎第四号館）,1,数値地図,139.74826533,35.67320442
13101,11,11110,国会等移転審議会事務局,霞が関2-1-2（中央合同庁舎第二号館）,1,数値地図,139.75126776,35.67570422
13101,11,11110,国際平和協力本部事務局,霞が関3-7-1（大東ビル）,1,数値地図画像,139.74471015,35.67144064
13101,11,11110,情報公開・個人情報保護審査会事務局,永田町1-11-39（永田町合同庁舎）,1,数値地図,139.74261004,35.67900364
13101,11,11110,食品安全委員会事務局,永田町2-13-10（プルデンシャルタワー）,1,数値地図画像,139.73864662,35.67569002
13101,11,11110,総合科学技術会議,霞が関3-1-2（中央合同庁舎第四号館）,1,数値地図,
13101,11,11110,中央防災会議幹事会,霞が関1-2-2（中央合同庁舎第五号館）,1,数値地図,139.75317325,35.67335453
13101,11,11110,内閣府,永田町1-6-1,1,数値地図,139.74525171,35.67300437
13101,11,11110,北方対策本部,霞が関3-1-1（中央合同庁舎第四号館）,1,数値地図,139.74826533,35.67320442
13103,11,11110,迎賓館,元赤坂2-1-1,1,数値地図,139.72895008,35.68003932
13103,11,11110,日本学術会議事務局,六本木7-22-34,1,数値地図,139.72515934,35.66533806
13101,11,11111,内閣官房,永田町2-3-1（首相官邸）,1,数値地図,139.74259361,35.67295153
13101,11,11112,宮内庁,千代田1-1,1,数値地図,136.91036752,35.16083215
13103,11,11112,東宮職,元赤坂2-1-8,1,数値地図,
13201,11,11112,書陵部多摩陵墓監区事務所,長房町,1,数値地図,139.30280937,35.65957270
13101,11,11113,金融庁,霞が関3-1-1（中央合同庁舎第四号館）,1,数値地図,139.74826533,35.67320442
13101,11,11114,公正取引委員会,霞が関1-1-1,1,数値地図,139.75440361,35.67564598
13101,11,11120,国家公安委員会,霞が関2-1-2,1,数値地図,139.75126776,35.67570422
13101,11,11121,警察庁,霞が関2-1-2,1,数値地図,139.75126776,35.67570422
13101,11,11121,皇宮警察本部,千代田1-3,1,数値地図,136.91190905,35.16120443
13101,11,11121,東京都警察情報通信部,霞が関2-1-1,1,数値地図,139.75210376,35.67684579
13206,11,11121,警察大学校,朝日町3-12-1,1,数値地図,139.51977669,35.67119621
13206,11,11121,警察大学校附属警察情報通信学校,朝日町3-12-1,1,数値地図,139.51977669,35.67119621
13211,11,11121,関東管区警察学校,喜平町2-5-1,1,数値地図,139.48733865,35.71882880
13104,11,11130,海上自衛隊システム通信隊群司令部,市谷本村町5-1,1,数値地図,139.72819405,35.69398221
13104,11,11130,海上幕僚監部,市谷本村町5-1,1,数値地図,139.72819405,35.69398221
13104,11,11130,技術研究本部,市谷本村町5-1,1,数値地図,139.72819405,35.69398221
13104,11,11130,航空幕僚監部,市谷本村町5-1,1,数値地図,139.72819405,35.69398221
13104,11,11130,情報本部,市谷本村町5-1,1,数値地図,139.72819405,35.69398221
13104,11,11130,装備本部,市谷本村町5-1,1,数値地図,139.72819405,35.69398221
13104,11,11130,防衛庁,市谷本村町5-1,1,数値地図,139.72819405,35.69398221
13110,11,11130,海上自衛隊幹部学校,中目黒2-2-1,1,数値地図,139.70789236,35.64195702
13110,11,11130,技術研究本部艦艇装備研究所,中目黒2-2-1,1,数値地図,139.70789236,35.64195702
13110,11,11130,航空自衛隊幹部学校,中目黒2-2-1,1,数値地図,139.70789236,35.64195702
13110,11,11130,統合幕僚学校,中目黒2-2-1,1,数値地図,139.70789236,35.64195702
13110,11,11130,防衛研究所,中目黒2-2-1,1,数値地図,139.70789236,35.64195702
13112,11,11130,技術研究本部先進技術推進センター,池尻1-2-24,1,数値地図,139.68375539,35.64375904
13112,11,11130,技術研究本部電子装備研究所,池尻1-2-24,1,数値地図,139.68375539,35.64375904
13117,11,11130,海上自衛隊補給本部,十条台1-5-70,1,数値地図画像,139.72660007,35.75674454
13117,11,11130,航空自衛隊補給本部,十条台1-5-70,1,数値地図画像,139.72660007,35.75674454
13120,11,11130,陸上自衛隊第一師団司令部,北町4-1-1,1,数値地図画像,139.65747507,35.76468890
13120,11,11130,陸上自衛隊東部方面総監部,大泉学園町,1,数値地図,139.57855142,35.76719742
13202,11,11130,技術研究本部航空装備研究所,栄町1-2-10,1,数値地図画像,139.15722254,35.25507589
13206,11,11130,航空自衛隊航空支援集団,浅間町1-5-5,1,数値地図画像,139.49530922,35.67352858
13206,11,11130,航空自衛隊航空総隊,浅間町1-5-5,1,数値地図画像,139.49530922,35.67352858
13104,11,11131,防衛施設庁,市谷本村町5-1,1,数値地図,139.72819405,35.69398221
13218,11,11131,東京防衛施設局横田防衛施設事務所,熊川864,1,数値地図,139.33635411,35.73196231
13421,11,11131,東京防衛施設局小笠原出張所,父島字東町152（小笠原総合庁舎）,1,数値地図,
13101,11,11140,関東総合通信局,丸の内1-6-1,1,数値地図画像,139.76591911,35.68403704
13101,11,11140,公害等調整委員会,霞が関3-1-1（中央合同庁舎第四号館）,1,数値地図,139.74826533,35.67320442
13101,11,11140,行政管理局,霞が関2-1-2,1,数値地図,139.75126776,35.67570422
13101,11,11140,総務省,霞が関2-1-2,1,数値地図,139.75126776,35.67570422
13104,11,11140,関東管区行政評価局東京行政評価事務所,百人町3-28-8（新宿地方合同庁舎）,1,数値地図,139.69573539,35.70470795
13104,11,11140,統計局,若松町19-1,1,数値地図,139.71469776,35.70087278
13104,11,11140,統計研修所,若松町19-1,1,数値地図,139.71469776,35.70087278
13202,11,11140,自治大学校,緑町3591,1,数値地図画像,
13214,11,11140,情報通信政策研究所,泉町2-11-16,1,数値地図画像,139.46994371,35.69931948
13101,11,11142,消防庁,霞が関2-1-2（中央合同庁舎二号館）,1,数値地図,139.75126776,35.67570422
13208,11,11142,消防大学校,深大寺東町4-35-3,1,数値地図画像,139.56361071,35.67402286
13101,11,11150,検察官適格審査会,霞が関1-1-1,1,数値地図,139.75440361,35.67564598
13101,11,11150,公安審査委員会,霞が関1-1-1,1,数値地図,139.75440361,35.67564598
13101,11,11150,司法試験委員会,霞が関1-1-1,1,数値地図,139.75440361,35.67564598
13101,11,11150,東京保護観察所,霞が関1-1-1,1,数値地図,139.75440361,35.67564598
13101,11,11150,東京法務局,九段南1-1-15（九段第二合同庁舎）,1,数値地図,139.75447794,35.69372735
13101,11,11150,法務省,霞が関1-1-1,1,数値地図,139.75440361,35.67564598
13101,11,11150,法務総合研究所,霞が関1-1-1,1,数値地図,139.75440361,35.67564598
13103,11,11150,東京入国管理局,港南5-5-30,1,数値地図画像,139.75654970,35.62822926
13103,11,11150,東京法務局港出張所,東麻布2-11-11,1,数値地図,139.73935837,35.65737259
13104,11,11150,東京入国管理局新宿出張所,歌舞伎町2-44-1（東京都健康プラザ「ハイジア」）,1,数値地図,139.70156296,35.69688677
13104,11,11150,東京法務局新宿出張所,北新宿1-8-22,1,数値地図,139.69494671,35.70124999
13105,11,11150,東京法務局人権擁護部,後楽1-9-20（飯田橋合同庁舎）,1,数値地図,139.74719198,35.70362607
13106,11,11150,東京法務局台東出張所,台東1-26-2,1,数値地図,139.77727088,35.70168825
13107,11,11150,東京法務局墨田出張所,菊川1-17-13,1,数値地図,139.80171001,35.68986232
13109,11,11150,東京法務局品川出張所,広町2-1-36（品川区総合庁舎）,1,数値地図,139.73024143,35.60883627
13110,11,11150,東京法務局目黒出張所,目黒本町1-16-17,1,数値地図,139.69422727,35.62674182
13111,11,11150,東京入国管理局羽田空港出張所,羽田空港3-4-4（国際線旅客ターミナルビル）,1,数値地図,139.79047065,35.54644689
13111,11,11150,東京法務局城南出張所,鵜の木2-9-15,1,数値地図画像,139.68194238,35.57347110
13112,11,11150,東京法務局世田谷出張所,若林4-31-18,1,数値地図,139.65434111,35.64640800
13113,11,11150,東京法務局渋谷出張所,宇田川町1-10（渋谷地方合同庁舎）,1,数値地図,139.69722574,35.66416539
13114,11,11150,矯正研修所東京支所,新井3-37-3,1,数値地図,139.66261010,35.71405592
13114,11,11150,東京法務局中野出張所,野方1-34-1,1,数値地図,139.65699967,35.70943406
13115,11,11150,東京法務局杉並出張所,今川2-1-3,1,数値地図,135.53868536,34.63101704
13116,11,11150,東京法務局豊島出張所,池袋4-30-20（豊島地方合同庁舎）,1,数値地図,139.71011332,35.73854899
13117,11,11150,東京法務局北出張所,王子6-2-66,1,数値地図,139.73916279,35.75940567
13119,11,11150,東京法務局板橋出張所,板橋1-44-6,1,数値地図,139.71760115,35.74867302
13120,11,11150,東京少年鑑別所,氷川台2-11-7,1,数値地図,139.66949103,35.75522365
13120,11,11150,東京法務局練馬出張所,春日町5-35-33,1,数値地図,139.63693296,35.75081224
13122,11,11150,東京拘置所,小管1-35-1,1,数値地図,
13122,11,11150,東京法務局城北出張所,小菅4-20-24,1,数値地図,139.82549977,35.75710828
13123,11,11150,東京法務局江戸川出張所,中央1-16-2,1,数値地図,139.72009886,35.58041722
13201,11,11150,多摩少年院,緑町670,1,数値地図,139.32442185,35.64571370
13201,11,11150,東京婦人補導院,中野町2726-1,1,数値地図,139.31776845,35.68034854
13201,11,11150,東京保護観察所八王子支部,明神町4-21-2,1,数値地図,133.73341379,34.53192012
13201,11,11150,東京法務局八王子支局,南大沢2-27（フレスコ南大沢）,1,数値地図画像,139.37926012,35.61194113
13201,11,11150,八王子医療刑務所,子安町3-26-1,1,数値地図,
13201,11,11150,八王子少年鑑別所,中野町2726-1,1,数値地図,139.31776845,35.68034854
13201,11,11150,府中刑務所八王子拘置支所,明神町4-21-2（法務総合庁舎）,1,数値地図,133.73341379,34.53192012
13202,11,11150,東京法務局立川出張所,錦町4-1-18（立川地方合同庁舎）,1,数値地図,139.67056142,35.82592760
13206,11,11150,関東医療少年院,新町1-17-1,1,数値地図,135.49511061,34.67783065
13206,11,11150,矯正研修所,晴見町2-8,1,数値地図,139.47475237,35.68006348
13206,11,11150,東京法務局府中支局,新町2-44,1,数値地図,139.49284229,35.68587989
13206,11,11150,府中刑務所,晴見町4-10,1,数値地図,139.47213299,35.68407407
13206,11,11150,法務総合研究所国際連合研修協力部,晴見町1-26,1,数値地図,139.47608000,35.68097452
13209,11,11150,東京法務局町田出張所,森野2-28-14（町田地方合同庁舎）,1,数値地図,139.44156230,35.54986346
13215,11,11150,東京入国管理局立川出張所,北3-31-2（立川法務総合庁舎）,1,数値地図,139.73175632,35.58138975
13218,11,11150,東京法務局西多摩支局,福生899,1,数値地図,139.32977076,35.74546050
13219,11,11150,愛光女子学園,西野川3-14-26,1,数値地図,139.56892061,35.64543929
13224,11,11150,東京法務局多摩出張所,落合1-15-1,1,数値地図,139.42983043,35.62601021
13229,11,11150,東京法務局田無出張所,本町4-16-24,1,数値地図,139.40815375,35.56930258
13361,11,11150,東京法務局大島出張所,元町字家の上445-9（大島合同庁舎）,1,数値地図,
13363,11,11150,東京法務局新島出張所,本村3-2-1,1,数値地図,139.41657856,35.33671730
13381,11,11150,東京法務局三宅島出張所,神着240,1,数値地図,139.52639380,34.12126934
13401,11,11150,東京法務局八丈島出張所,大賀郷2263,1,数値地図,139.79004809,33.10614016
13101,11,11151,最高検察庁,霞が関1-1-1,1,数値地図,139.75440361,35.67564598
13101,11,11151,東京高等検察庁,霞が関1-1-1,1,数値地図,139.75440361,35.67564598
13101,11,11151,東京地方検察庁,霞が関1-1-1,1,数値地図,139.75440361,35.67564598
13101,11,11151,東京地方検察庁東京区検察庁,霞が関1-1-1,1,数値地図,139.75440361,35.67564598
13101,11,11151,東京地方検察庁東京区検察庁道路交通部,霞が関1-1-1,1,数値地図,139.75440361,35.67564598
13201,11,11151,東京地方検察庁八王子区検察庁,明神町4-21-2,1,数値地図,133.73341379,34.53192012
13201,11,11151,東京地方検察庁八王子支部,明神町4-21-2,1,数値地図,133.73341379,34.53192012
13202,11,11151,東京地方検察庁立川区検察庁,錦町4-1-19,1,数値地図,139.42060653,35.69288829
13203,11,11151,東京地方検察庁武蔵野区検察庁,中町2-11-4,1,数値地図,139.36410270,35.44260387
13205,11,11151,東京地方検察庁青梅区検察庁,師岡町1-1301-2,1,数値地図,139.27784577,35.79247307
13209,11,11151,東京地方検察庁町田区検察庁,森野2-28-14,1,数値地図,139.44156230,35.54986346
13361,11,11151,東京地方検察庁伊豆大島区検察庁,元町字家の上445-9,1,数値地図,139.36319180,34.74981126
13361,11,11151,東京地方検察庁新島区検察庁,元町字家の上445-9,1,数値地図,139.36319180,34.74981126
13401,11,11151,東京地方検察庁八丈島区検察庁,大賀郷2263,1,数値地図,139.79004809,33.10614016
13101,11,11152,関東公安調査局,九段南1-1-10（九段合同庁舎）,1,数値地図,139.75526400,35.69336907
13101,11,11152,公安調査庁,霞が関1-1-1,1,数値地図,139.75440361,35.67564598
13101,11,11152,公安調査庁研修所,霞が関1-1-1,1,数値地図,139.75440361,35.67564598
13101,11,11160,外務省,霞が関2-2-1,1,数値地図,139.74937910,35.67397103
13101,11,11170,会計センター,九段南1-1-10（九段合同庁舎）,1,数値地図,139.75526400,35.69336907
13101,11,11170,財務省,霞が関3-1-1,1,数値地図,139.74826533,35.67320442
13101,11,11170,財務総合政策研究所,霧が関3-1-1,1,数値地図,
13102,11,11170,東京税関晴海出張所,晴海4-6-29,1,数値地図,139.78043830,35.65387963
13103,11,11170,東京税関芝浦出張所,海岸2-7-68,1,数値地図,139.75909864,35.64833243
13104,11,11170,財務総合政策研究所研修部,市谷本村町8-1,1,数値地図,139.72789402,35.69533206
13105,11,11170,関東財務局東京財務事務所,湯島4-6-15（湯島地方合同庁舎）,1,数値地図画像,139.76654040,35.70927326
13108,11,11170,税関研修所東京支所,青海2-56（東京港湾合同庁舎）,1,数値地図,
13108,11,11170,東京税関,青海2-56,1,数値地図,
13108,11,11170,東京税関東京外郵出張所,新砂3-5-14（東京国際郵便局）,1,数値地図画像,139.83827729,35.66425767
13111,11,11170,東京税関羽田出張所,羽田空港3-4-4,1,数値地図,139.79047065,35.54644689
13111,11,11170,東京税関大井出張所,東海4-1-10,1,数値地図,139.76518955,35.59379790
13202,11,11170,関東財務局立川出張所,錦町4-1-18（立川合同庁舎）,1,数値地図,139.67056142,35.82592760
13202,11,11170,東京税関立川出張所,錦町4-1-18（立川合同庁舎）,1,数値地図,139.67056142,35.82592760
13101,11,11171,国税庁,霞が関3-1-1,1,数値地図,139.74826533,35.67320442
13101,11,11171,国税不服審判所,霞が関3-1-1,1,数値地図,139.74826533,35.67320442
13101,11,11171,税務大学校,霞が関3-1-1（国税庁）,1,数値地図,139.74826533,35.67320442
13101,11,11171,東京国税局,大手町1-3-3（大手町合同庁舎三号館）,1,数値地図,139.76269418,35.68951414
13101,11,11171,東京国税局麹町税務署,九段南1-1-15（九段第二合同庁舎）,1,数値地図,139.75447794,35.69372735
13101,11,11171,東京国税局神田税務署,神田錦町3-3,1,数値地図,139.76000812,35.69264428
13101,11,11171,東京国税不服審判所,九段南1-1-15（九段第二合同庁舎）,1,数値地図,139.75447794,35.69372735
13102,11,11171,東京国税局京橋税務署,新富2-6-1,1,数値地図,139.77375214,35.67132752
13102,11,11171,東京国税局日本橋税務署,日本橋堀留町2-6-9,1,数値地図,139.78112404,35.68939247
13103,11,11171,東京国税局芝税務署,芝5-8-1,1,数値地図,139.74690800,35.64903203
13103,11,11171,東京国税局品川税務署,高輪3-13-22,1,数値地図,139.73474307,35.62975891
13103,11,11171,東京国税局麻布税務署,西麻布3-3-5,1,数値地図,139.72699002,35.65777781
13104,11,11171,東京国税局四谷税務署,三栄町24,1,数値地図,136.68989364,35.06614341
13104,11,11171,東京国税局新宿税務署,北新宿1-19-3,1,数値地図,139.69437188,35.69807256
13105,11,11171,東京国税局小石川税務署,春日1-4-5,1,数値地図,139.74746683,35.70705626
13105,11,11171,東京国税局本郷税務署,西片2-16-27,1,数値地図画像,139.75557415,35.71760815
13106,11,11171,東京国税局浅草税務署,蔵前2-8-12,1,数値地図,139.79232288,35.70304949
13106,11,11171,東京国税局東京上野税務署,池之端1-2-22（上野合同庁舎）,1,数値地図画像,139.76862640,35.70965663
13107,11,11171,東京国税局向島税務署,東向島2-7-14,1,数値地図,139.81559210,35.71695790
13107,11,11171,東京国税局本所税務署,業平1-7-2,1,数値地図,139.80925926,35.70754634
13108,11,11171,東京国税局江東西税務署,猿江2-16-12,1,数値地図,139.81701012,35.68601836
13108,11,11171,東京国税局江東東税務署,亀戸2-17-8,1,数値地図,139.82248693,35.69782494
13109,11,11171,東京国税局荏原税務署,中延1-1-5,1,数値地図,139.70975409,35.61382968
13110,11,11171,東京国税局目黒税務署,中目黒5-27-16,1,数値地図,139.69483251,35.63571578
13111,11,11171,東京国税局蒲田税務署,蒲田本町2-1-22,1,数値地図,139.71850019,35.55806449
13111,11,11171,東京国税局雪谷税務署,雪谷大塚町4-12,1,数値地図,139.68036874,35.59338171
13111,11,11171,東京国税局大森税務署,中央7-4-18,1,数値地図,139.68680740,35.81976482
13112,11,11171,東京国税局玉川税務署,玉川2-1-7,1,数値地図,139.63088923,35.61168422
13112,11,11171,東京国税局世田谷税務署,若林4-22-14,1,数値地図,139.65383565,35.64477763
13112,11,11171,東京国税局北沢税務署,松原6-13-10,1,数値地図,139.65231585,35.66000914
13113,11,11171,東京国税局渋谷税務署,宇田川町1-10（渋谷地方合同庁舎）,1,数値地図,139.69722574,35.66416539
13114,11,11171,東京国税局中野税務署,中野4-9-15,1,数値地図,139.66300759,35.70706227
13115,11,11171,東京国税局荻窪税務署,天沼3-19-14,1,数値地図,139.62041107,35.70998856
13115,11,11171,東京国税局杉並税務署,成田東4-15-8,1,数値地図,139.63555324,35.69596115
13116,11,11171,東京国税局豊島税務署,西池袋3-33-22,1,数値地図,139.70519742,35.73024700
13117,11,11171,東京国税局王子税務署,王子3-22-15,1,数値地図,139.73841283,35.76005003
13118,11,11171,東京国税局荒川税務署,西日暮里6-7-2,1,数値地図,139.77255881,35.73700714
13119,11,11171,東京国税局板橋税務署,大山東町35-1,1,数値地図,139.70715194,35.75070587
13120,11,11171,東京国税局練馬西税務署,東大泉7-31-35,1,数値地図,139.58042675,35.74612518
13120,11,11171,東京国税局練馬東税務署,栄町23-7,1,数値地図,139.66846686,35.73883386
13121,11,11171,東京国税局西新井税務署,栗原3-10-16,1,数値地図,139.78331078,35.77899080
13121,11,11171,東京国税局足立税務署,千住旭町4-21（足立地方合同庁舎）,1,数値地図,139.80728289,35.74908975
13122,11,11171,東京国税局葛飾税務署,立石8-31-6,1,数値地図,139.85471464,35.73961353
13123,11,11171,東京国税局江戸川南税務署,清新町2-3-13,1,数値地図画像,139.85455688,35.65555359
13123,11,11171,東京国税局江戸川北税務署,平井1-16-11,1,数値地図,139.84920058,35.70393037
13201,11,11171,東京国税局八王子税務署,子安町4-4-9,1,数値地図,
13202,11,11171,東京国税局立川税務署,高松町2-26-12,1,数値地図,139.41988117,35.70405923
13203,11,11171,東京国税局武蔵野税務署,吉祥寺本町3-27-1,1,数値地図,139.56865726,35.70340470
13205,11,11171,東京国税局青梅税務署,東青梅4-13-4,1,数値地図,139.28102907,35.78517958
13206,11,11171,東京国税局武蔵府中税務署,本町4-2,1,数値地図,135.49969622,34.68324677
13209,11,11171,東京国税局町田税務署,中町3-3-6,1,数値地図,139.56331854,35.71083987
13212,11,11171,東京国税局日野税務署,万願寺6-36-2,1,数値地図画像,139.41139980,35.66966571
13213,11,11171,東京国税局東村山税務署,本町1-20-22,1,数値地図,139.50995416,35.70092590
13101,11,11180,科学技術政策研究所,丸の内2-5-1（文部科学省ビル）,1,数値地図画像,139.76317774,35.67999018
13101,11,11180,地震調査研究推進本部,丸の内2-5-1,1,数値地図画像,139.76317774,35.67999018
13101,11,11180,日本ユネスコ国内委員会,丸の内2-5-1（文部科学省）,1,数値地図画像,139.76317774,35.67999018
13101,11,11180,文部科学省,丸の内2-5-1,1,数値地図画像,139.76317774,35.67999018
13106,11,11180,日本学士院,上野公園7-32,1,数値地図,139.77723958,35.71612296
13110,11,11180,国立教育政策研究所,下目黒6-5-22,1,数値地図,
13101,11,11181,文化庁,丸の内2-5-1,1,数値地図画像,139.76317774,35.67999018
13106,11,11181,日本芸術院,上野公園1-30,1,数値地図,139.77509260,35.71336204
13101,11,11190,厚生労働省,霞が関1-2-2（中央合同庁舎第五号館）,1,数値地図,139.75317325,35.67335453
13101,11,11190,国立社会保障・人口問題研究所,内幸町2-2-3（日比谷国際ビル）,1,数値地図画像,139.75435104,35.67036600
13101,11,11190,東京労働局中央労働基準監督署,九段南1-1-15（九段第二合同庁舎）,1,数値地図,139.75447794,35.69372735
13102,11,11190,国立がんセンター,築地5-1-1,1,数値地図,139.76734736,35.66557520
13103,11,11190,東京労働局三田労働基準監督署,芝5-35-1（産業安全会館）,1,数値地図,139.74564433,35.64577681
13103,11,11190,品川公共職業安定所,六本木3-2-21（六本木ジョブパーク）,1,数値地図画像,139.73803881,35.66375798
13104,11,11190,国立感染症研究所,戸山1-23-1,1,数値地図,139.71735572,35.70429747
13104,11,11190,国立国際医療センター,戸山1-21-1,1,数値地図,139.71601144,35.70327532
13104,11,11190,新宿公共職業安定所,歌舞伎町2-42-10,1,数値地図,139.70092687,35.69786997
13104,11,11190,東京労働局新宿労働基準監督署,西新宿7-5-25（西新宿木村屋ビル）,1,数値地図,139.69854654,35.69743107
13105,11,11190,東京労働局(第一庁舎),後楽1-7-22,1,数値地図,139.74774184,35.70618969
13105,11,11190,東京労働局(第二庁舎),後楽2-5-1（住友不動産飯田橋ファーストビル）,1,数値地図画像,139.74605589,35.70556194
13105,11,11190,飯田橋公共職業安定所,後楽1-9-20（飯田橋合同庁舎）,1,数値地図,139.74719198,35.70362607
13106,11,11190,上野公共職業安定所,東上野4-1-2,1,数値地図,139.78044512,35.71204006
13106,11,11190,東京労働局上野労働基準監督署,池ノ端1-2-22（上野合同庁舎）,1,数値地図画像,
13107,11,11190,東京労働局向島労働基準監督署,東向島4-33-13,1,数値地図,139.81863937,35.72546581
13107,11,11190,墨田公共職業安定所,江東橋2-19-12,1,数値地図画像,139.81136060,35.69628912
13108,11,11190,東京検疫所,青海2-56（東京港湾合同庁舎）,1,数値地図,
13108,11,11190,東京労働局亀戸労働基準監督署,亀戸2-19-1（カメリアプラザ）,1,数値地図画像,139.82451989,35.69764459
13108,11,11190,木場公共職業安定所,木場2-13-19,1,数値地図画像,139.80438052,35.67125890
13111,11,11190,大森公共職業安定所,大森北4-16-7,1,数値地図画像,139.72746763,35.58330047
13111,11,11190,東京検疫所東京空港検疫所支所,羽田空港3-4-4（東京国際空港国際線旅客ターミナルビル）,1,数値地図,139.79047065,35.54644689
13111,11,11190,東京労働局大田労働基準監督署,蒲田5-40-3（月村ビル）,1,数値地図画像,139.71652514,35.56126119
13112,11,11190,国立医薬品食品衛生研究所,上用賀1-18-1,1,数値地図,139.63688466,35.63220378
13112,11,11190,国立成育医療センター,大蔵2-10-1,1,数値地図画像,139.61269523,35.63375585
13112,11,11190,国立成育医療センター研究所,太子堂3-35-31,1,数値地図画像,
13113,11,11190,渋谷公共職業安定所,神南1-3-5,1,数値地図,139.70103927,35.66484595
13113,11,11190,東京労働局渋谷労働基準監督署,神南1-3-5（渋谷神南合同庁舎）,1,数値地図,139.70103927,35.66484595
13116,11,11190,池袋公共職業安定所,東池袋3-5-13,1,数値地図,139.71734079,35.73134165
13116,11,11190,東京労働局池袋労働基準監督署,池袋4-30-20（豊島地方合同庁舎）,1,数値地図,139.71011332,35.73854899
13117,11,11190,王子公共職業安定所,王子6-1-17,1,数値地図,139.73941270,35.76113605
13117,11,11190,東京労働局王子労働基準監督署,赤羽2-8-5,1,数値地図,139.72544648,35.77983328
13120,11,11190,職業安定局労働市場センター業務室,上石神井4-8-4,1,数値地図,139.58986550,35.73049103
13120,11,11190,労働基準局労災補償部労災保険業務室,上石神井4-8-4,1,数値地図,139.58986550,35.73049103
13121,11,11190,足立公共職業安定所,千住1-4-1,1,数値地図画像,139.80049751,35.74698153
13121,11,11190,東京労働局足立労働基準監督署,千住旭町4-21（足立地方合同庁舎）,1,数値地図,139.80728289,35.74908975
13123,11,11190,東京労働局江戸川労働基準監督署,船堀2-4-11,1,数値地図画像,139.85856682,35.68528040
13201,11,11190,東京労働局八王子労働基準監督署,明神町3-8-10,1,数値地図,139.34394478,35.65601306
13201,11,11190,八王子公共職業安定所,子安町1-13-1,1,数値地図画像,
13202,11,11190,東京労働局立川労働基準監督署,錦町4-1-18（立川合同庁舎）,1,数値地図,139.67056142,35.82592760
13202,11,11190,立川公共職業安定所,錦町1-9-21,1,数値地図,139.41950654,35.69499081
13204,11,11190,三鷹公共職業安定所,下連雀4-15-18,1,数値地図,139.56166656,35.69536104
13204,11,11190,東京労働局三鷹労働基準監督署,下連雀3-2-11,1,数値地図,
13205,11,11190,青梅公共職業安定所,東青梅3-12-16,1,数値地図,139.27691818,35.78984002
13205,11,11190,東京労働局青梅労働基準監督署,東青梅2-6-2,1,数値地図,139.27094648,35.79164520
13206,11,11190,府中公共職業安定所,美好町1-3-1,1,数値地図,139.47301108,35.67346974
13209,11,11190,町田公共職業安定所,森野2-28-14（町田合同庁舎）,1,数値地図,139.44156230,35.54986346
13209,11,11190,東京労働局八王子労働基準監督署町田支署,森野2-28-14（町田地方合同庁舎）,1,数値地図,139.44156230,35.54986346
13211,11,11190,国立精神・神経センター,小川東町4-1-1,1,数値地図,139.47593603,35.73871511
13213,11,11190,国立感染症研究所ハンセン病研究所センター,青葉町4-2-1,1,数値地図,139.49986067,35.76855399
13213,11,11190,国立療養所多磨全生園,青葉町4-1-1,1,数値地図,139.49547224,35.76480432
13221,11,11190,国立国際医療センター国立看護大学校,梅園1-2-1,1,数値地図画像,139.50818485,35.77402019
13223,11,11190,国立感染症研究所村山庁舎,学園4-7-1,1,数値地図画像,139.40167294,35.74478749
13101,11,11191,麹町社会保険事務所,三番町22,1,数値地図画像,139.74219041,35.69154060
13101,11,11191,社会保険庁,霞が関1-2-2（中央合同庁舎第五号館）,1,数値地図,139.75317325,35.67335453
13101,11,11191,神田社会保険事務所,猿楽町2-7-8（住友水道橋ビル）,1,数値地図画像,139.75733577,35.70038502
13101,11,11191,東京社会保険事務局麹町事務所,三番町22,1,数値地図画像,139.74219041,35.69154060
13102,11,11191,京橋社会保険事務所,銀座7-13-8（第二丸高ビル）,1,数値地図画像,139.76419197,35.66775543
13102,11,11191,日本橋社会保険事務所,日本橋1-7-9（ダヴィンチ日本橋179）,1,数値地図画像,139.77553519,35.68313741
13103,11,11191,港社会保険事務所,浜松町1-10-14（住友東新橋ビル三号館）,1,数値地図画像,139.75536248,35.65933668
13104,11,11191,新宿社会保険事務所,大久保2-12-1（ぺアーレ新宿）,1,数値地図画像,139.70671511,35.70133363
13104,11,11191,東京社会保険事務局,大久保2-12-1,1,数値地図画像,139.70671511,35.70133363
13105,11,11191,文京社会保険事務所,千石1-6-15,1,数値地図画像,139.74180557,35.72644008
13106,11,11191,上野社会保険事務所,池之端1-2-18（MG池之端ビル）,1,数値地図画像,139.76840694,35.71014268
13107,11,11191,墨田社会保険事務所,立川3-8-12,1,数値地図画像,139.80478706,35.69103711
13108,11,11191,江東社会保険事務所,亀戸5-16-9,1,数値地図画像,139.82614741,35.70054703
13109,11,11191,品川社会保険事務所,大崎5-1-5（高徳ビル）,1,数値地図画像,139.72485805,35.62365386
13110,11,11191,目黒社会保険事務所,上目黒1-12-4,1,数値地図画像,139.69964845,35.64612026
13111,11,11191,蒲田社会保険事務所,蒲田4-25-2,1,数値地図画像,139.72138020,35.56033626
13111,11,11191,大森社会保険事務所,山王2-5-9（高岡ビル）,1,数値地図画像,139.72783398,35.59001353
13112,11,11191,世田谷社会保険事務所,世田谷1-30-12,1,数値地図画像,139.64874449,35.64148623
13113,11,11191,渋谷社会保険事務所,神南1-12-1,1,数値地図画像,139.70083099,35.66400437
13114,11,11191,中野社会保険事務所,中野2-4-25,1,数値地図画像,139.67156534,35.70321854
13115,11,11191,社会保険業務センター,高井戸西3-5-24,1,数値地図,139.61467071,35.68895195
13115,11,11191,杉並社会保険事務所,高円寺南2-54-9,1,数値地図画像,139.65439747,35.70153489
13116,11,11191,池袋社会保険事務所,南池袋2-17-2,1,数値地図画像,139.71304690,35.72660596
13117,11,11191,北社会保険事務所,上十条1-1-10,1,数値地図画像,139.72646392,35.75815826
13119,11,11191,板橋社会保険事務所,板橋1-47-4,1,数値地図画像,139.71800946,35.74841473
13120,11,11191,練馬社会保険事務所,石神井町4-27-37,1,数値地図画像,139.60258587,35.75011695
13121,11,11191,足立社会保険事務所,綾瀬2-17-9,1,数値地図画像,139.82662174,35.76028845
13122,11,11191,葛飾社会保険事務所,立石3-7-3,1,数値地図画像,139.84308802,35.74021072
13123,11,11191,江戸川社会保険事務所,中央3-4-24,1,数値地図画像,139.87113401,35.70997003
13201,11,11191,八王子社会保険事務所,南新町4-1,1,数値地図画像,141.23150817,38.43499703
13202,11,11191,立川社会保険事務所,錦町2-12-10,1,数値地図画像,139.41368490,35.69200765
13203,11,11191,武蔵野社会保険事務所,吉祥寺北町4-12-18,1,数値地図画像,139.56632372,35.71352851
13206,11,11191,府中社会保険事務所,府中町2-12-2,1,数値地図画像,139.48318523,35.67428380
13103,11,11192,中央労働委員会,芝公園1-5-32,1,数値地図,139.75122673,35.65906438
13101,11,11200,関東農政局東京農政事務所,大手町1-3-3（大手町合同庁舎第三号館）,1,数値地図,139.76269418,35.68951414
13101,11,11200,農林水産省,霞が関1-2-1,1,数値地図,139.75169557,35.67389332
13105,11,11200,関東農政局東京農政事務所東京統計・情報センター,湯島4-6-15（湯島地方合同庁舎）,1,数値地図画像,139.76654040,35.70927326
13105,11,11200,関東農政局東京農政事務所統計部,湯島4-6-15（湯島地方合同庁舎）,1,数値地図画像,139.76654040,35.70927326
13108,11,11200,横浜植物防疫所東京支所,青海2-56（東京港湾合同庁舎）,1,数値地図,
13108,11,11200,関東農政局東京農政事務所食糧部倉庫課,塩浜1-2-10,1,数値地図画像,139.79965035,35.66077107
13108,11,11200,動物検疫所東京出張所,青梅2-56（東京港湾合同庁舎）,1,数値地図,
13108,11,11200,農林水産研修所食料消費技術研修館,塩浜1-4-46,1,数値地図,139.80184179,35.66358748
13111,11,11200,横浜植物防疫所成田支所羽田空港出張所,羽田空港3-4-4（東京国際空港国際線旅客ターミナルビル）,1,数値地図,139.79047065,35.54644689
13111,11,11200,動物検疫所成田支所羽田空港出張所,羽田空港3-4-4,1,数値地図,139.79047065,35.54644689
13117,11,11200,農林水産政策研究所,西ケ原2-2-1,1,数値地図,139.74502948,35.74672659
13201,11,11200,農林水産研修所,廿里町36-1,1,数値地図,139.27969524,35.64428784
13202,11,11200,関東農政局東京農政事務所食糧部防災倉庫課・地域課,緑町無番地,1,数値地図画像,
13207,11,11200,関東農政局東京農政事務所昭島統計・情報センター,東町2-1-2,1,数値地図,139.55873993,35.66822507
13214,11,11200,動物医薬品検査所,戸倉1-15-1,1,数値地図,139.46261887,35.71218170
13101,11,11202,林野庁,霞が関1-2-1,1,数値地図,139.75169557,35.67389332
13108,11,11202,関東森林管理局東京事務所,東陽6-1-42,1,数値地図画像,139.81068272,35.67378650
13201,11,11202,関東森林管理局高尾森林センター,廿里町35-1,1,数値地図画像,139.28019521,35.64396844
13201,11,11202,森林技術総合研修所,廿里町1833-94,1,数値地図,139.27697033,35.64794007
13101,11,11203,水産庁,霞が関1-2-1（合同庁舎）,1,数値地図,139.75169557,35.67389332
13101,11,11210,経済産業研修所,霞が関1-3-1,1,数値地図,139.75180121,35.67137416
13101,11,11210,経済産業省,霞が関1-3-1,1,数値地図,139.75180121,35.67137416
13105,11,11210,関東経済産業局東京通商事務所,湯島4-6-15（湯島地方合同庁舎）,1,数値地図画像,139.76654040,35.70927326
13213,11,11210,経済産業研修所,富士見町5-4-36,1,数値地図,139.45748178,35.74688305
13101,11,11211,原子力安全・保安院,霞が関1-3-1,1,数値地図,139.75180121,35.67137416
13101,11,11211,資源エネルギー庁,霞が関1-3-1,1,数値地図,139.75180121,35.67137416
13101,11,11212,特許庁,霞が関3-4-3,1,数値地図,139.74588506,35.67103793
13101,11,11213,中小企業庁,霞が関1-3-1,1,数値地図,139.75180121,35.67137416
13101,11,11220,関東地方整備局東京国道事務所,大手町1-3-3,1,数値地図,139.76269418,35.68951414
13101,11,11220,国土交通省,霞が関2-1-3,1,数値地図,139.75009840,35.67603471
13101,11,11220,国土交通政策研究所,霞が関2-1-2（中央合同庁舎二号館）,1,数値地図,139.75126776,35.67570422
13101,11,11220,国土地理院関東地方測量部,九段南1-1-15（九段第二合同庁舎）,1,数値地図,139.75447794,35.69372735
13101,11,11220,東京航空局,九段南1-1-15（九段第二合同庁舎）,1,数値地図,139.75447794,35.69372735
13104,11,11220,関東地方整備局東京第一営繕事務所,百人町3-28-8,1,数値地図,139.69573539,35.70470795
13107,11,11220,関東地方整備局東京第二営繕事務所,立花1-24-1,1,数値地図,139.83149352,35.70560812
13108,11,11220,関東運輸局東京運輸支局(青海庁舎),青海2-56（東京港湾合同庁舎）,1,数値地図,
13108,11,11220,関東地方整備局東京港湾事務所,新木場1-6-25,1,数値地図画像,139.82801492,35.64499853
13108,11,11220,東京航空局江東空港出張所,新木場4,1,数値地図,139.83775616,35.63922459
13109,11,11220,関東運輸局東京運輸支局,東大井1-12-17,1,数値地図,139.74704309,35.60476240
13111,11,11220,関東地方整備局東京空港整備事務所,羽田空港3-3-1（国際空港第二庁舎）,1,数値地図,139.78220175,35.55365973
13111,11,11220,航空保安大学校,羽田空港1-6-4,1,数値地図,
13111,11,11220,東京航空局東京空港事務所,羽田空港3-3-1,1,数値地図,139.78220175,35.55365973
13112,11,11220,東京外かく環状道路調査事務所,用賀4-5-16（TEビル）,1,数値地図画像,139.63240479,35.62605174
13117,11,11220,関東地方整備局荒川下流河川事務所,志茂5-41-1,1,数値地図,139.73014318,35.78558805
13120,11,11220,関東運輸局東京運輸支局練馬自動車検査登録事務所,北町2-8-6,1,数値地図,139.65768889,35.76603041
13121,11,11220,関東運輸局東京運輸支局足立自動車検査登録事務所,南花畑5-12-1,1,数値地図,139.81711015,35.79728394
13201,11,11220,関東運輸局東京運輸支局八王子自動車検査登録事務所,滝山町1-270-2,1,数値地図,139.34708227,35.69091467
13201,11,11220,関東地方整備局相武国道工事事務所,大和田町4-3-13,1,数値地図,
13202,11,11220,関東地方整備局国営昭和記念公園事務所,緑町3173,1,数値地図,139.40788769,35.70335899
13202,11,11220,関東地方整備事務所甲武営繕事務所,緑町3567,1,数値地図,139.40643754,35.71259680
13211,11,11220,国土交通大学校,喜平町2-2-1,1,数値地図,139.48127527,35.71922304
13215,11,11220,関東運輸局東京運輸支局多摩自動車検査登録事務所,北3-30-3,1,数値地図,139.73175630,35.58185080
13361,11,11220,東京航空局大島空港出張所,元町字北の山270-1,1,数値地図,139.36354661,34.78319087
13401,11,11220,東京航空局八丈島空港・航空路監視レーダー事務所,大賀郷2839-2,1,数値地図,139.78372564,33.11661631
13421,11,11220,小笠原総合事務所,父島字東町152,1,数値地図,
13101,11,11221,海上保安庁,霞が関2-1-3,1,数値地図,139.75009840,35.67603471
13102,11,11221,海上保安庁海洋情報部,築地5-3-1,1,数値地図,139.76613917,35.66473081
13108,11,11221,第三管区海上保安本部東京海上保安部,青海2-56（東京港湾合同庁舎）,1,数値地図,
13111,11,11221,第三管区海上保安本部羽田航空基地,羽田空港1-12-1,1,数値地図,139.75485104,35.55743335
13111,11,11221,第三管区海上保安本部羽田特殊救難基地,羽田空港1-12-1,1,数値地図,139.75485104,35.55743335
13202,11,11221,海上保安試験研究センター,泉町1156,1,数値地図,139.40636807,35.71390220
13421,11,11221,第三管区海上保安本部横浜海上保安部小笠原海上保安署,父島字清瀬,1,数値地図,142.19474287,27.10033503
13101,11,11222,海難審判理事所,霞が関2-1-2,1,数値地図,139.75126776,35.67570422
13101,11,11222,高等海難審判庁,霞が関2-1-2,1,数値地図,139.75126776,35.67570422
13101,11,11223,気象庁,大手町1-3-4,1,数値地図,139.76167479,35.68966687
13101,11,11223,東京管区気象台,大手町1-3-4,1,数値地図,139.76167479,35.68966687
13108,11,11223,東京管区気象台東京航空地方気象台東京へリポート出張所,新木場4,1,数値地図,139.83775616,35.63922459
13111,11,11223,東京管区気象台東京航空地方気象台,羽田空港3-3-1,1,数値地図,139.78220175,35.55365973
13221,11,11223,気象衛星センター,中清戸3-235,1,数値地図,139.53206854,35.77649824
13221,11,11223,予報部情報通信課システム運用室,中清戸3-235,1,数値地図,139.53206854,35.77649824
13361,11,11223,東京管区気象台大島測候所,元町字家の上445-9,1,数値地図,139.36319180,34.74981126
13361,11,11223,東京管区気象台東京航空地方気象台大島空港分室,元町字北の山270-1,1,数値地図,139.36354661,34.78319087
13381,11,11223,東京管区気象台三宅島測候所,神着74,1,数値地図,
13401,11,11223,東京管区気象台東京航空地方気象台八丈島空港出張所,大賀郷2839-2,1,数値地図,139.78372564,33.11661631
13401,11,11223,東京管区気象台八丈島測候所,大賀郷6104,1,数値地図画像,139.77898962,33.12195705
13421,11,11223,父島気象観測所,父島字西町,1,数値地図,142.19032674,27.09331338
13101,11,11224,船員中央労働委員会,霞が関2-1-2,1,数値地図,139.75126776,35.67570422
13101,11,11230,環境省,霞が関1-2-2（中央合同庁舎第五号館）,1,数値地図,139.75317325,35.67335453
13101,11,11230,公害健康被害補償不服審査会,霞が関3-3-2（新霞が関ビル）,1,数値地図画像,139.74622389,35.67186007
13101,11,11230,自然環境局皇居外苑管理事務所,皇居外苑1-1,1,数値地図,139.75550899,35.67786798
13101,11,11230,自然環境局千鳥ヶ淵戦没者墓苑管理事務所,三番町2,1,数値地図,132.77130477,33.83817398
13104,11,11230,自然環境局新宿御苑管理事務所,内藤町11,1,数値地図,139.70824615,35.68559655
13101,11,11240,最高裁判所,隼町4-2,1,数値地図,139.74357101,35.68049795
13101,11,11240,最高裁判所図書館,隼町4-2,1,数値地図,139.74357101,35.68049795
13101,11,11240,知的財産高等裁判所,霞が関1-1-4,1,数値地図,139.75276210,35.67517099
13101,11,11240,東京家庭裁判所,霞が関1-1-2,1,数値地図,139.75397313,35.67474884
13101,11,11240,東京高等裁判所,霞が関1-1-4,1,数値地図,139.75276210,35.67517099
13101,11,11240,東京地方裁判所,霞が関1-1-4,1,数値地図,139.75276210,35.67517099
13101,11,11240,東京地方裁判所東京簡易裁判所,霞が関1-1-2,1,数値地図,139.75397313,35.67474884
13101,11,11240,東京地方裁判所東京簡易裁判所墨田分室(仮庁舎),霞が関1-1-1,1,数値地図,139.75440361,35.67564598
13101,11,11240,東京地方裁判所東京第一検察審査会,霞が関1-1-4,1,数値地図,139.75276210,35.67517099
13101,11,11240,東京地方裁判所東京第二検察審査会,霞が関1-1-4,1,数値地図,139.75276210,35.67517099
13111,11,11240,東京地方裁判所東京簡易裁判所大森分室,山王4-19-7,1,数値地図画像,139.72025142,35.58487781
13114,11,11240,東京地方裁判所東京簡易裁判所中野分室,弥生町5-5-2,1,数値地図画像,139.66633317,35.68616487
13117,11,11240,東京簡易裁判所北分室,滝野川1-66-3,1,数値地図,
13201,11,11240,東京家庭裁判所八王子支部,明神町4-21-1,1,数値地図,133.73338046,34.53197012
13201,11,11240,東京地方裁判所八王子簡易裁判所,明神町4-21-1,1,数値地図,133.73338046,34.53197012
13201,11,11240,東京地方裁判所八王子検察審査会,明神町4-21-1,1,数値地図,133.73338046,34.53197012
13201,11,11240,東京地方裁判所八王子支部,明神町4-21-1,1,数値地図,133.73338046,34.53197012
13202,11,11240,東京地方裁判所立川簡易裁判所,錦町4-1-19,1,数値地図,139.42060653,35.69288829
13203,11,11240,東京地方裁判所武蔵野簡易裁判所,中町2-4-12,1,数値地図,139.64456817,35.61043697
13205,11,11240,東京地方裁判所青梅簡易裁判所,師岡町1-1300-1,1,数値地図,139.27820685,35.79256196
13209,11,11240,東京地方裁判所町田簡易裁判所,森野3-28-11,1,数値地図,
13361,11,11240,東京家庭裁判所伊豆大島出張所,元町字家の上445-10,1,数値地図,139.36378342,34.74982794
13361,11,11240,東京地方裁判所伊豆大島簡易裁判所,元町字家の上445-10,1,数値地図,139.36378342,34.74982794
13363,11,11240,東京地方裁判所新島簡易裁判所,本村3-2-2,1,数値地図,139.41660634,35.33679784
13401,11,11240,東京家庭裁判所八丈島出張所,大賀郷1485-1,1,数値地図,139.79093405,33.10705400
13401,11,11240,東京地方裁判所八丈島簡易裁判所,大賀郷1485-1,1,数値地図,139.79093405,33.10705400
13104,12,12001,東京都庁,西新宿2-8-1,2,数値地図,139.69164748,35.68918461
13101,12,12002,千代田区役所,九段南1-6-11,3,数値地図,139.75248087,35.69386061
13102,12,12002,中央区役所,築地1-1-1,3,数値地図,139.77200230,35.67058588
13103,12,12002,港区役所,芝公園1-5-25,3,数値地図,139.75145452,35.65805616
13104,12,12002,新宿区役所,歌舞伎町1-4-1,3,数値地図,139.70346291,35.69388994
13105,12,12002,文京区役所,春日1-16-21,3,数値地図,139.75246081,35.70803406
13106,12,12002,台東区役所,東上野4-5-6,3,数値地図,139.77998401,35.71260667
13107,12,12002,墨田区役所,吾妻橋1-23-20,3,数値地図,139.80149603,35.71072382
13108,12,12002,江東区役所,東陽4-11-28,3,数値地図,139.81727083,35.67277284
13109,12,12002,品川区役所,広町2-1-36,3,数値地図,139.73024143,35.60883627
13110,12,12002,目黒区役所,上目黒2-19-15,3,数値地図,139.69859036,35.64126245
13111,12,12002,大田区役所,蒲田5-13-14,3,数値地図,139.71598632,35.56125842
13112,12,12002,世田谷区役所,世田谷4-21-27,3,数値地図,139.65276903,35.64596913
13113,12,12002,渋谷区役所,宇田川町1-1,3,数値地図,139.69807679,35.66395376
13114,12,12002,中野区役所,中野4-8-1,3,数値地図,139.66375196,35.70728172
13115,12,12002,杉並区役所,阿佐谷南1-15-1,3,数値地図,139.63636299,35.69989294
13116,12,12002,豊島区役所,東池袋1-18-1,3,数値地図,139.71548812,35.73241092
13117,12,12002,北区役所,王子本町1-15-22,3,数値地図,139.73352465,35.75280347
13118,12,12002,荒川区役所,荒川2-2-3,3,数値地図,139.78337252,35.73608322
13119,12,12002,板橋区役所,板橋2-66-1,3,数値地図,139.70919342,35.75091701
13120,12,12002,練馬区役所,豊玉北6-12-1,3,数値地図,139.65167123,35.73557268
13121,12,12002,足立区役所,中央本町1-17-1,3,数値地図,139.80458418,35.77489185
13122,12,12002,葛飾区役所,立石5-13-1,3,数値地図,139.84740682,35.74298530
13123,12,12002,江戸川区役所,中央1-4-1,3,数値地図,139.68746415,35.69821680
13201,12,12002,八王子市役所,元本郷町3-24-1,3,数値地図,139.31607462,35.66656949
13202,12,12002,立川市役所,錦町3-2-26,3,数値地図,139.41969822,35.69425756
13203,12,12002,武蔵野市役所,緑町2-2-28,3,数値地図,139.56593746,35.71783635
13204,12,12002,三鷹市役所,野崎1-1-1,3,数値地図,139.55959768,35.68351226
13205,12,12002,青梅市役所,東青梅1-11-1,3,数値地図,139.27579614,35.78786523
13206,12,12002,府中市役所,宮西町2-24,3,数値地図,139.47727755,35.66907035
13207,12,12002,昭島市役所,田中町1-17-1,3,数値地図,
13208,12,12002,調布市役所,小島町2-35-1,3,数値地図,139.54068151,35.65062732
13209,12,12002,町田市役所,中町1-20-23,3,数値地図,139.44637303,35.54866360
13210,12,12002,小金井市役所,本町6-6-3,3,数値地図,139.98560854,35.70423195
13211,12,12002,小平市役所,小川町2-1333,3,数値地図,139.47790853,35.72840801
13212,12,12002,日野市役所,神明1-12-1,3,数値地図,139.82835381,35.79330940
13213,12,12002,東村山市役所,本町1-2-3,3,数値地図,139.57855915,35.70381598
13214,12,12002,国分寺市役所,戸倉1-6-1,3,数値地図,139.46270502,35.71082909
13215,12,12002,国立市役所,富士見台2-47-1,3,数値地図,139.44136621,35.68391216
13218,12,12002,福生市役所,本町5,3,数値地図,136.69579060,36.53557530
13219,12,12002,狛江市役所,和泉本町1-1-5,3,数値地図,139.57873418,35.63491314
13220,12,12002,東大和市役所,中央3-930,3,数値地図,139.42703715,35.74471306
13221,12,12002,清瀬市役所,中里5-842,3,数値地図,139.52642198,35.78576080
13222,12,12002,東久留米市役所,本町3-3-1,3,数値地図,139.98699200,35.69763271
13223,12,12002,武蔵村山市役所,本町1-1-1,3,数値地図,139.57952297,35.70349104
13224,12,12002,多摩市役所,関戸6-12-1,3,数値地図,139.44688959,35.63775924
13225,12,12002,稲城市役所,東長沼2111,3,数値地図,139.50426905,35.63795935
13227,12,12002,羽村市役所,緑ヶ丘5-2-1,3,数値地図,139.31052158,35.76777125
13228,12,12002,あきる野市役所,二宮350,3,数値地図,139.26223782,35.29789180
13229,12,12002,西東京市役所,南町5-6-13,3,数値地図,139.53795616,35.72567651
13303,12,12004,瑞穂町役場,大字箱根ヶ崎2335,3,数値地図,139.35407327,35.77189963
13305,12,12004,日の出町役場,大字平井2780,3,数値地図,139.25740482,35.74211437
13307,12,12004,檜原村役場,467-1,3,数値地図,135.38902990,34.73846609
13308,12,12004,奥多摩町役場,氷川215-6,3,数値地図,139.09621331,35.80952065
13361,12,12004,大島町役場,元町1-1-14,3,数値地図,139.45115541,35.33693013
13362,12,12004,利島村役場,248,3,数値地図,129.63629823,33.05918885
13363,12,12004,新島村役場,本村1-1-1,3,数値地図,139.41063985,35.33448121
13364,12,12004,神津島村役場,904,3,数値地図,139.91319592,35.77511917
13381,12,12004,三宅村役場,阿古497,3,数値地図画像,139.47916639,34.07594562
13382,12,12004,御蔵島村役場,字入りかねが沢,3,数値地図,
13401,12,12004,八丈町役場,大賀郷2345-1,3,数値地図,139.79111996,33.10956206
13402,12,12004,青ヶ島村役場,無番地,3,数値地図,141.30990719,38.50641065
13421,12,12004,小笠原村役場,父島字西町,3,数値地図,142.19032674,27.09331338
13101,12,12005,東京都産業労働局労働相談情報センター,飯田橋3-10-3（東京しごとセンター）,2,数値地図画像,139.74957526,35.70055703
13101,12,12005,東京都主税局千代田都税事務所,内神田2-1-12,2,数値地図,139.76824385,35.68902546
13102,12,12005,東京都建設局第一建設事務所,明石町2-4,2,数値地図,139.77779356,35.66919453
13102,12,12005,東京都主税局中央都税事務所,新富2-6-1,2,数値地図,139.77375214,35.67132752
13102,12,12005,東京都都市整備局東部住宅建設事務所,京橋1-10-3,2,数値地図,139.77264089,35.67856281
13103,12,12005,東京都港湾局東京港管理事務所,海岸2-7-104,2,数値地図,139.76047345,35.65068776
13103,12,12005,東京都港湾局東京港建設事務所,港南3-9-56,2,数値地図画像,139.75197765,35.63340906
13103,12,12005,東京都産業労働局島しょ農林水産総合センター,海岸1-13-17,2,数値地図画像,139.76133993,35.65414018
13103,12,12005,東京都主税局港都税事務所,芝5-36-5,2,数値地図,
13104,12,12005,東京都主税局新宿都税事務所,西新宿7-5-8,2,数値地図,139.69874655,35.69678671
13104,12,12005,東京都福祉局児童相談センター,戸山町43,2,数値地図,
13105,12,12005,東京都主税局文京都税事務所,春日1-16-21,2,数値地図,139.75246081,35.70803406
13105,12,12005,東京都福祉保健局監察医務院,大塚4-21-18,2,数値地図,139.73296473,35.72467894
13106,12,12005,東京都建設局東部公園緑地事務所,上野公園7-47,2,数値地図,139.77625635,35.71500915
13106,12,12005,東京都主税局台東都税事務所,雷門1-6-1,2,数値地図,139.79215555,35.70985714
13107,12,12005,東京都主税局墨田都税事務所,業平1-7-4,2,数値地図,139.80903980,35.70779355
13107,12,12005,東京都福祉保健局墨田児童相談所,江東橋1-16-10,2,数値地図画像,139.80991357,35.69626691
13108,12,12005,東京都港湾局東京港防災事務所,辰己1-1-16,2,数値地図,
13108,12,12005,東京都産業労働局労働相談情報センター亀戸事務所,亀戸2-19-1（カメリアプラザ）,2,数値地図画像,139.82451989,35.69764459
13108,12,12005,東京都主税局江東都税事務所,大島3-1-3,2,数値地図,139.82765002,35.68999590
13108,12,12005,東京都都市整備局第一区画整理事務所,東陽7-3-5,2,数値地図,139.81928179,35.67525868
13109,12,12005,東京都建設局第二建設事務所,広町2-1-36,2,数値地図,139.73024143,35.60883627
13109,12,12005,東京都産業労働局労働相談情報センター大崎事務所,大崎1-11-1,2,数値地図,139.73052162,35.61922953
13109,12,12005,東京都主税局品川自動車税事務所,東大井1-12-18,2,数値地図,139.74661255,35.60503735
13109,12,12005,東京都主税局品川都税事務所,広町2-1-36,2,数値地図,139.73024143,35.60883627
13109,12,12005,東京都福祉保健局品川児童相談所,北品川3-7-21,2,数値地図,139.74034309,35.61787443
13110,12,12005,東京都主税局目黒都税事務所,上目黒2-19-15,2,数値地図画像,139.69859036,35.64126245
13111,12,12005,東京都主税局大田都税事務所,西蒲田7-11-1,2,数値地図,139.71123947,35.56429975
13112,12,12005,東京都主税局世田谷都税事務所,若林4-22-12,2,数値地図,139.65341903,35.64414159
13112,12,12005,東京都福祉保健局世田谷児童相談所,桜丘5-28-12,2,数値地図,139.61976913,35.64355741
13113,12,12005,東京都主税局渋谷都税事務所,宇田川町1-1,2,数値地図,139.69807679,35.66395376
13113,12,12005,東京都消防学校,西原2-51-1,2,数値地図画像,139.67333307,35.67232498
13114,12,12005,東京都建設局第三建設事務所,中野4-8-1,2,数値地図,139.66375196,35.70728172
13114,12,12005,東京都主税局中野都税事務所,中野4-6-15,2,数値地図,139.66378797,35.70966201
13114,12,12005,東京都都市整備局再開発事務所,中野1-2-5,2,数値地図,137.41046128,35.44988585
13115,12,12005,東京都主税局杉並都税事務所,成田東5-39-11,2,数値地図,139.63395488,35.69959013
13115,12,12005,東京都福祉保健局杉並児童相談所,南荻窪4-23-6,2,数値地図画像,139.61502576,35.70114221
13116,12,12005,東京都建設局第四建設事務所,南大塚2-36-2,2,数値地図,139.73032033,35.72917001
13116,12,12005,東京都産業労働局労働相談情報センター池袋事務所,東池袋4-23-9,2,数値地図画像,139.71778254,35.72830311
13116,12,12005,東京都主税局自動車税総合事務所,西池袋1-17-1,2,数値地図,139.70843045,35.73090813
13116,12,12005,東京都主税局豊島都税事務所,西池袋1-17-1,2,数値地図,139.70843045,35.73090813
13117,12,12005,東京都主税局北都税事務所,中十条1-7-8,2,数値地図,139.72918591,35.75822221
13117,12,12005,東京都福祉保健局北児童相談所,王子6-1-12,2,数値地図,139.73888496,35.76127768
13118,12,12005,東京都建設局新交通建設事務所,西日暮里5-26-8,2,数値地図画像,139.76895353,35.73366834
13118,12,12005,東京都主税局荒川都税事務所,荒川1-50-14,2,数値地図,139.79209622,35.73481901
13119,12,12005,東京都主税局板橋都税事務所,大山東町44-8,2,数値地図,139.70611041,35.74951154
13120,12,12005,東京都主税局練馬自動車税事務所,北町2-8-6,2,数値地図,139.65768889,35.76603041
13120,12,12005,東京都主税局練馬都税事務所,豊玉北6-13-10,2,数値地図,139.65137676,35.73678364
13121,12,12005,東京都建設局第六建設事務所,千住東2-10-10,2,数値地図,139.80805822,35.74536812
13121,12,12005,東京都主税局足立自動車税事務所,南花畑5-12-1,2,数値地図,139.81711015,35.79728394
13121,12,12005,東京都主税局足立都税事務所,千住1-30-8,2,数値地図,139.80293607,35.74842305
13121,12,12005,東京都都市整備局第二区画整理事務所,千住東2-10-10,2,数値地図,139.80805822,35.74536812
13121,12,12005,東京都福祉保健局足立児童相談所,西新井本町3-8-4,2,数値地図画像,139.77657262,35.77557433
13122,12,12005,東京都建設局江東治水事務所,東新小岩1-14-11,2,数値地図,139.85986251,35.72095427
13122,12,12005,東京都建設局水元公園管理事務所,水元公園3-2,2,数値地図,139.86926489,35.78642950
13122,12,12005,東京都建設局第五建設事務所,東新小岩1-14-11,2,数値地図,139.85986251,35.72095427
13122,12,12005,東京都主税局葛飾都税事務所,立石5-13-1,2,数値地図,139.84740682,35.74298530
13123,12,12005,東京都主税局江戸川都税事務所,中央4-24-19,2,数値地図,139.68232432,35.82428914
13201,12,12005,東京都建設局南多摩西部建設事務所,明神町3-19-2,2,数値地図,139.34350036,35.65638800
13201,12,12005,東京都産業労働局労働相談情報センター八王子事務所,明神町3-5-1,2,数値地図,139.34555853,35.65589367
13201,12,12005,東京都主税局八王子自動車税事務所,滝山町1-270-5,2,数値地図,139.34666007,35.69132573
13201,12,12005,東京都主税局八王子都税事務所,明神町3-19-2,2,数値地図,139.34350036,35.65638800
13201,12,12005,東京都福祉保健局八王子児童相談所,台町2-7-13,2,数値地図,139.32042763,35.64886600
13201,12,12005,東京都福祉保健局八王子福祉作業所,台町3-17-30,2,数値地図,139.32164954,35.65483759
13202,12,12005,東京都建設局北多摩北部建設事務所,柴崎町2-15-19,2,数値地図,
13202,12,12005,東京都産業労働局家畜保健衛生所,富士見町3-19-4,2,数値地図,139.39590291,35.69525960
13202,12,12005,東京都産業労働局農業振興事務所,柴崎町3-17-7,2,数値地図画像,
13202,12,12005,東京都主税局立川都税事務所,錦町4-6-3,2,数値地図,139.42070101,35.69189674
13202,12,12005,東京都都市整備局多摩建築指導事務所,錦町4-6-3（立川合同庁舎分庁舎）,2,数値地図,139.42070101,35.69189674
13202,12,12005,東京都福祉保健局立川児童相談所,曙町3-10-19,2,数値地図画像,139.42896667,35.70063211
13203,12,12005,東京都建設局西部公園緑地事務所,御殿山1-17-59,2,数値地図,139.57304584,35.70114115
13203,12,12005,東京都福祉保健局武蔵野福祉作業所,吉祥寺北町4-12-20,2,数値地図画像,139.56608764,35.71328409
13205,12,12005,東京都建設局西多摩建設事務所,東青梅3-20-1,2,数値地図,139.27770418,35.79090936
13205,12,12005,東京都産業労働局森林事務所,川辺町6-4-1,2,数値地図画像,
13205,12,12005,東京都主税局青梅都税支所,川辺町6-4-1,2,数値地図画像,
13205,12,12005,東京都福祉保健局西多摩福祉事務所,川辺町6-4-1,2,数値地図画像,
13205,12,12005,東京都福祉保健局青梅福祉作業所,千ケ瀬町3-393-4,2,数値地図画像,139.26920243,35.78562919
13206,12,12005,東京都建設局北多摩南部建設事務所,緑町1-27-1,2,数値地図,139.48456571,35.67329506
13206,12,12005,東京都主税局府中都税支所,宮西町1-26-1,2,数値地図,139.47729415,35.67111734
13206,12,12005,東京都都市整備局西部住宅建設事務所,寿町3-4-6,2,数値地図画像,
13208,12,12005,東京都港湾局調布飛行場管理事務所,西町290-3,2,数値地図,
13209,12,12005,東京都建設局南多摩東部建設事務所,中町1-31-12,2,数値地図,139.44855342,35.54845535
13209,12,12005,東京都主税局町田都税支所,中町1-31-12,2,数値地図,139.44855342,35.54845535
13211,12,12005,東京都主税局小平都税支所,花小金井1-6-20,2,数値地図,139.51407742,35.73011710
13211,12,12005,東京都福祉保健局小平児童相談所,花小金井6-20-1,2,数値地図画像,139.51043052,35.73027532
13214,12,12005,東京都産業労働局労働相談情報センター国分寺事務所,南町3-22-10,2,数値地図画像,139.58785308,35.69665868
13215,12,12005,東京都主税局多摩自動車税事務所,北3-30,2,数値地図,139.73190906,35.58182581
13224,12,12005,東京都都市整備局多摩ニュータウン整備事務所,山王下1-3-2,2,数値地図画像,
13224,12,12005,東京都福祉保健局多摩児童相談所,諏訪2-6,2,数値地図,135.56196839,34.68391433
13361,12,12005,東京都大島支庁,元町字オンダシ222-1,2,数値地図画像,139.35765020,34.75748520
13381,12,12005,東京都三宅支庁,伊豆642,2,数値地図画像,139.51731695,34.11866657
13401,12,12005,東京都八丈支庁,大賀郷2466-2,2,数値地図画像,139.78893679,33.10982856
13421,12,12005,東京都小笠原支庁,父島字西町,2,数値地図,142.19032674,27.09331338
13101,13,13001,千代田保健所,神田錦町3-10,3,数値地図,139.76204966,35.69297208
13102,13,13001,月島保健センター,月島2-10-3,3,数値地図画像,139.78397104,35.66327313
13102,13,13001,中央区保健所,明石町12-1,3,数値地図,139.77702985,35.66653091
13102,13,13001,日本橋保健センター,日本橋掘留町1-1-1,3,数値地図,
13103,13,13001,みなと保健所生活衛生センター,六本木5-16-45,3,数値地図,139.73503086,35.66064158
13103,13,13001,みなと保健所保健サービスセンター,三田1-4-10,3,数値地図,139.74255820,35.65403081
13104,13,13001,牛込保健センター,弁天町50,3,数値地図画像,139.72719376,35.70371723
13104,13,13001,四谷保健センター,四谷4-17,3,数値地図画像,139.71617031,35.68891859
13104,13,13001,西新宿保健センター,西新宿7-5-8,3,数値地図,139.69874655,35.69678671
13104,13,13001,東京都島しょ保健所,西新宿2-8-1,2,数値地図画像,139.69164748,35.68918461
13104,13,13001,落合保健センター,下落合4-6-7,3,数値地図画像,139.69499600,35.71871744
13106,13,13001,台東保健所,東上野4-22-8,3,数値地図,139.78151994,35.71447043
13109,13,13001,品川区保健センター,北品川3-11-22,3,数値地図画像,139.74073200,35.61658570
13109,13,13001,品川区保健所,荏原2-9-6,3,数値地図,139.71150384,35.61718489
13121,13,13001,江北保健総合センター,西新井本町2-30-40,3,数値地図,139.77157304,35.77600746
13121,13,13001,千住保健総合センター,千住仲町19-3,3,数値地図,139.80160026,35.74632333
13121,13,13001,竹の塚保健総合センター,竹の塚1-11-2,3,数値地図画像,139.79365953,35.78955937
13121,13,13001,中央本町保健総合センター,中央本町1-5-3,3,数値地図,139.80397606,35.77110339
